city_name,latitude,longitude
abergement-clémenciat,46.1534255214,4.92611354223
abergement-de-varey,46.009187877600006,5.42801696363
ambérieu-en-bugey,45.960847511400004,5.3729257777
ambérieux-en-dombes,45.9961799872,4.91227250796
ambléon,45.7494989044,5.594320173659999
ambronay,46.005591378199995,5.35760660735
ambutrix,45.9367134524,5.3328092349
andert-et-condon,45.7873565333,5.65788307924
anglefort,45.9093715116,5.79516005674
apremont,46.75726823390001,-1.7484131364700002
aranc,46.0015344029,5.51130637511
arandas,45.8908155275,5.4987043909099995
arbent,46.2834936005,5.690616512209999
arboys en bugey,45.7237621545,5.65263086429
arbigny,46.4776762988,4.9599416863
argis,45.933718213199995,5.48251100314
armix,45.8541838459,5.58357838695
ars-sur-formans,45.993461100000005,4.8219964949400005
artemare,45.8695891748,5.690652839430001
asnières-sur-saône,46.3857281418,4.88387478623
attignat,46.2861802203,5.1795233844999995
bâgé-dommartin,46.323320330200005,4.9528678933
bâgé-le-châtel,46.30770692310001,4.92862084189
balan,49.689759451099995,4.963582869730001
baneins,46.1141214445,4.90146475101
beaupont,46.4288360203,5.26003405676
beauregard,44.3524666438,1.7795856872599998
bellignat,46.2373497134,5.636005288400001
béligneux,45.8591464826,5.1398950586500005
bellegarde-sur-valserine,46.1067901755,5.83202736464
belley,45.7494697806,5.6841236552600005
belleydoux,46.253031640900005,5.784717236980001
belmont-luthézieu,45.8847475883,5.65115788055
bénonces,45.837497471800006,5.48285330863
bény,46.318862921800005,5.282534334049999
béon,47.9490435845,3.31322327005
béréziat,46.3674371012,5.04021655965
bettant,45.9368718303,5.36667617009
bey,46.821298738500005,4.96979880981
beynost,45.8390325448,4.99738002182
billiat,46.07913467149999,5.76591818163
birieux,45.953399550200004,5.0366647998400005
biziat,46.2266794269,4.940846731680001
blyes,45.8469686113,5.25166055884
boisse,44.7162436565,0.656505019107
boissey,49.0197538694,0.0500632254083
bolozon,46.1960338503,5.47095075411
bouligneux,46.0232774841,4.99252709276
bourg-en-bresse,46.2051520382,5.24602125501
bourg-saint-christophe,45.88619344560001,5.143491968959999
boyeux-saint-jérôme,46.0363677631,5.46322744717
boz,46.4051688134,4.913579717799999
brégnier-cordon,45.641685465200005,5.61653371
brénaz,45.950008294700005,5.7371892334000005
brénod,46.0759940484,5.61418361314
brens,43.8878107316,1.9296712012200001
bressolles,46.5280643075,3.295748661
brion,47.9995517691,3.47900609014
briord,45.7708330939,5.485374618840001
buellas,46.2104135162,5.144874650169999
burbanche,45.8598709332,5.54609714598
ceignes,46.125653343500005,5.494573792020001
cerdon,47.6299186758,2.38147298677
certines,46.1337950959,5.262395393719999
cessy,46.315689376,6.0779844362
ceyzériat,46.1832170988,5.32007207542
ceyzérieu,45.833553014799996,5.71933090966
chalamont,46.007649173900006,5.16936568
chaleins,46.034054537299994,4.79853838574
chaley,45.953336773400004,5.53682505273
challes-la-montagne,46.1221539654,5.45755377201
challex,46.17683583270001,5.97115092939
champagne-en-valromey,45.931644739700005,5.693218900720001
champdor-corcelles,46.019884418800004,5.60008759722
champfromier,46.220365768,5.822335731310001
chanay,46.005695298999996,5.7689339318499995
chaneins,46.0934984191,4.85473364691
chanoz-châtenay,46.1861812234,5.02807719246
chapelle-du-châtelard,46.0744536905,5.02162055898
charix,46.1856344066,5.6811896084
charnoz-sur-ain,45.87367868689999,5.2211032563
château-gaillard,45.9730390239,5.307542735319999
châtenay,46.2913546739,4.382666943409999
châtillon-en-michaille,46.1293337743,5.770176021
châtillon-la-palud,45.9748017433,5.2416027725
châtillon-sur-chalaronne,46.123239068500006,4.9581000371399995
chavannes-sur-reyssouze,46.4379785193,5.006937496619999
nivigne et suran,46.2750157946,5.416494230930001
chaveyriat,46.1991513767,5.0564069258
chavornay,45.88240495350001,5.724998145160001
chazey-bons,45.7925770617,5.684770631880001
chazey-sur-ain,45.8929448968,5.25528498524
cheignieu-la-balme,45.8227204334,5.605002396900001
chevillard,46.1103512578,5.58116056005
chevroux,46.38249255,4.962882759719999
chevry,46.283152935,6.04707941462
chézery-forens,46.222573373,5.8724810527499995
civrieux,45.922467454,4.88633786877
cize,46.719897206300004,5.91999404872
cleyzieu,45.902146623,5.43272695486
coligny,46.386663786499994,5.3308227014
collonges,46.1419227898,5.90040256654
colomieu,45.7361469025,5.62670101041
conand,45.8834810846,5.47541328981
condamine,46.649905188000005,5.43493044694
condeissiat,46.1538469834,5.08437171701
confort,46.1543700156,5.83319395258
confrançon,46.270304175,5.05775217893
contrevoz,45.8009403071,5.620877681590001
conzieu,45.7253102173,5.60442351043
corbonod,45.965947318699996,5.7896197035500006
corlier,46.033688557299996,5.496357550290001
cormaranche-en-bugey,45.944277282600005,5.60860828487
cormoranche-sur-saône,46.2403530179,4.8276569593000005
cormoz,46.4336632942,5.2218127575499995
corveissiat,46.25051072350001,5.471524679190001
courmangoux,46.3267864521,5.35558241812
courtes,46.4570082032,5.11128546723
crans,46.6951339522,5.98129931286
cras-sur-reyssouze,46.3130831891,5.17796707174
cressin-rochefort,45.78264348850001,5.765462566369999
crottet,46.283072336000004,4.8774797118199995
crozet,46.1733609918,3.8382075432300002
cruzilles-lès-mépillat,46.222058871499996,4.8752193513
culoz,45.8559966843,5.7839830893199995
curciat-dongalon,46.488545688100004,5.163443368369999
curtafond,46.273150382,5.1020896267
cuzieu,45.606298512399995,4.2654520715099995
dagneux,45.853161691800004,5.0728916680300005
divonne-les-bains,46.3756333495,6.1158647611
dommartin,49.7953023134,2.40134941683
dompierre-sur-veyle,46.066788370299996,5.2166519966600005
dompierre-sur-chalaronne,46.1415406621,4.90141714714
domsure,46.424406642700006,5.2931347965099995
dortan,46.3133221173,5.64146584117
douvres,45.984297391999995,5.37106901673
drom,46.2196603059,5.367999949180001
druillat,46.067579544,5.29361666429
échallon,46.2271364137,5.73330448395
échenevex,46.316084520699995,6.019261879959999
étrez,46.3380891758,5.19286414645
évosges,45.965147537,5.50283599885
faramans,45.3879958398,5.15388883556
fareins,46.020997974,4.7620080898
farges,45.1147728849,1.19318015196
feillens,46.3365833672,4.885070509709999
ferney-voltaire,46.251978924300005,6.10826403805
flaxieu,45.811329800500005,5.74459048839
foissiat,46.378475978199994,5.18483641417
francheleins,46.0735946256,4.81293575559
frans,45.993906507700004,4.78033196905
garnerans,46.2136224825,4.828431887430001
genouilleux,46.120161172799996,4.79288195016
béard-géovreissiat,46.189673353900005,5.55139781353
géovreisset,46.250862161499995,5.612719739149999
germagnat,46.3054983344,5.450127986159999
gex,46.347189174700006,6.0465055556800005
giron,46.222712119099995,5.78049809256
gorrevod,46.414943437,4.95120595427
grand-corent,46.207387937,5.43318666027
grièges,46.2633634407,4.846213188469999
grilly,46.331881066499996,6.113667679780001
groissiat,46.2260039429,5.61095413441
guéreins,46.106624673999995,4.78159420118
hautecourt-romanèche,46.16112419270001,5.429444576390001
hauteville-lompnes,45.9696520061,5.57627261783
hostiaz,45.9061631889,5.54077986031
haut valromey,46.0317412192,5.70267027388
illiat,46.1866986838,4.88840344003
injoux-génissiat,46.0497734524,5.75991363273
innimond,45.7919647191,5.57389398559
izenave,46.0381623415,5.52447901164
izernore,46.2179780137,5.56258251719
izieu,45.655749640699995,5.6390914079400005
jassans-riottier,45.9777239103,4.75984637871
jasseron,46.215003706400005,5.312153723380001
jayat,46.3660828991,5.11429701617
journans,46.1464982407,5.33452833151
joyeux,45.9499899849,5.10261326872
jujurieux,46.0497041467,5.41094771899
labalme,46.093249129499995,5.494386852130001
lagnieu,45.89170157979999,5.32917518895
laiz,46.2469919709,4.899334909719999
poizat-lalleyriat,46.1479592076,5.71829194244
lancrans,46.1323202721,5.84050985141
lantenay,47.3437761758,4.86573170898
lapeyrouse,46.231626570500005,2.87835411182
lavours,45.8108837933,5.772673178380001
léaz,46.1086518044,5.87649017888
lélex,46.2855010936,5.929277137710001
lent,46.751255809300005,5.97544232672
lescheroux,46.4114892731,5.15107164478
leyment,45.9269989549,5.2947657235
leyssard,46.1624187428,5.476332974909999
lhôpital,46.0238143134,5.76236736492
lhuis,45.744414140299995,5.53602066955
lochieu,45.930247987899996,5.7413126836
lompnas,45.8105943351,5.52320457866
lompnieu,45.9690865613,5.6596881649699995
loyettes,45.7921564114,5.21770971647
lurcy,46.06173003399999,4.780752070259999
magnieu,45.7754050255,5.71540945601
maillat,46.1201642836,5.528543942380001
malafretaz,46.32955456609999,5.14386299599
mantenay-montlin,46.430275451099995,5.10675899732
manziat,46.3643830585,4.902427771549999
marboz,46.343431249700004,5.24374534963
marchamp,45.773849526599996,5.54985181107
marignieu,45.8010384947,5.715703529240001
marlieux,46.054907318599994,5.0741150816000005
marsonnas,46.3409117711,5.06434294764
martignat,46.2030768095,5.613840338049999
massieux,45.909401681700004,4.82779660051
massignieu-de-rives,45.7571503942,5.7620535823
matafelon-granges,46.2565319445,5.53958933702
meillonnas,46.244997627,5.33594738489
mérignat,46.0648564341,5.44210660051
messimy-sur-saône,46.0472670758,4.75935643933
meximieux,45.906053031800006,5.2040483365300005
bohas-meyriat-rignat,46.1427060662,5.3780109646000005
mézériat,46.2423102101,5.04725416984
mijoux,46.362245172399994,6.00902631941
mionnay,45.895593929899995,4.92416967439
miribel,45.1976909238,5.10654579635
misérieux,45.9762325343,4.81028471711
mogneneins,46.1446696076,4.820110702
montagnat,46.16869691229999,5.27962107938
montagnieu,45.526459825699995,5.45129139723
montanges,46.17325293,5.79006091307
montceaux,46.0962893261,4.80453564172
montcet,46.219333227,5.11149132074
montellier,45.928748248599994,5.07092815964
monthieux,45.9622791838,4.94555984534
montluel,45.8909006209,5.0198756618500004
montmerle-sur-saône,46.084957323599994,4.7608579486
montracol,46.186720030100005,5.11706011755
montréal-la-cluse,46.1795688194,5.59510550127
montrevel-en-bresse,46.3252811442,5.11295966315
nurieux-volognat,46.183072099200004,5.51435812316
murs-et-gélignieux,45.6420014274,5.6603968488900005
nantua,46.153784540299995,5.61352793799
neuville-les-dames,46.156775304899995,5.00942432434
neuville-sur-ain,46.0909654813,5.373497846909999
neyrolles,46.134293711400005,5.63714517869
neyron,45.818419246800005,4.9309045685
niévroz,45.8222941077,5.0594962919499995
nivollet-montgriffon,45.999944824399996,5.458478153740001
oncieu,45.9651165469,5.471466174990001
ordonnaz,45.833969037799996,5.539579429600001
ornex,46.2774557513,6.0945472359899995
outriaz,46.067796636000004,5.556975474290001
oyonnax,46.2605435859,5.65344320923
ozan,46.386716887700004,4.91805840196
parcieux,45.9184267932,4.827474234019999
parves et nattages,45.743734018299996,5.738007371340001
péron,46.1913554154,5.91968751164
péronnas,46.171190341300004,5.21802169564
pérouges,45.8803945768,5.17955874977
perrex,46.2465065604,4.97464940331
peyriat,46.1498184067,5.50572312284
peyrieu,45.6762428663,5.679128091919999
peyzieux-sur-saône,46.122633185299996,4.822432267190001
pirajoux,46.385801285,5.27417594024
pizay,45.892850958100006,5.08915465965
plagne,43.160921243500006,1.0589815244
plantay,46.023026422700006,5.08912046926
polliat,46.2463108642,5.13794412439
pollieu,45.7965373468,5.74794515549
poncin,46.089530586,5.4168126694700005
pont-d'ain,46.0542077091,5.34703652618
pont-de-vaux,46.442286447700006,4.9286245942699995
pont-de-veyle,46.2637215091,4.88186068102
port,-20.9448851377,55.305326715
pougny,47.3940156932,3.0239740478400003
pouillat,46.3219301481,5.42318000482
prémeyzel,45.68062631229999,5.64396081449
prémillieu,45.876457149,5.56475010385
prévessin-moëns,46.25827228,6.07223251859
priay,46.0197521486,5.28523353803
pugieu,45.817679480600006,5.649704054990001
ramasse,46.19055508939999,5.35572056985
rancé,45.9673905154,4.863430259509999
relevant,46.0843657897,4.94176845356
replonges,46.30773560229999,4.8746938271
revonnas,46.1615355815,5.33543916388
reyrieux,45.936765244200004,4.82840395968
reyssouze,46.4285569061,4.912850562719999
rignieux-le-franc,45.9518762734,5.16936671105
romans,46.3564424718,-0.228510254531
rossillon,45.836385458900004,5.59926863007
ruffieu,46.0037108867,5.65322391497
saint-alban,43.692770887799995,1.41260524785
saint-andré-de-bâgé,46.298541568000005,4.91411565769
saint-andré-de-corcy,45.927001954,4.95373324492
saint-andré-d'huiriat,46.2140960915,4.91291358797
saint-andré-le-bouchoux,46.1131399612,5.0802376895
saint-andré-sur-vieux-jonc,46.149241053199994,5.1417520014800004
saint-bénigne,46.4519173207,4.953098259030001
groslée-saint-benoit,45.689184227700004,5.5843972561
saint-bernard,47.665884637,7.20435846737
saint-champ,45.7825741014,5.7326531461000005
sainte-croix,43.9703149708,2.07210937838
saint-cyr-sur-menthon,46.275400560600005,4.96757105158
saint-denis-lès-bourg,46.211199845299994,5.184628067709999
saint-denis-en-bugey,45.9488551151,5.3236770169800005
saint-didier-d'aussiat,46.3069992095,5.058206976919999
saint-didier-de-formans,45.9564926067,4.77766764875
saint-didier-sur-chalaronne,46.1840408682,4.81645666173
saint-éloi,46.9901181067,3.2219860509900005
saint-étienne-du-bois,46.841848177399996,-1.59617737479
saint-étienne-sur-chalaronne,46.1468059584,4.86696454244
saint-étienne-sur-reyssouze,46.4030398952,5.00605581573
sainte-euphémie,45.9669798317,4.7947818916900005
saint-genis-pouilly,46.254539333000004,6.0362907345000005
saint-genis-sur-menthon,46.2815955593,5.01311826405
saint-georges-sur-renon,46.1037951263,5.03001967494
saint-germain-de-joux,46.1821955394,5.74672259773
saint-germain-les-paroisses,45.770974924899996,5.61753440834
saint-germain-sur-renon,46.0797285417,5.06090903982
saint-jean-de-gonville,46.2178585727,5.94203093769
saint-jean-de-niost,45.84050025689999,5.21167430462
saint-jean-de-thurigneux,45.95984243229999,4.89936410681
saint-jean-le-vieux,43.1714110881,-1.20732334378
saint-jean-sur-reyssouze,46.3972479854,5.0629776377699995
saint-jean-sur-veyle,46.2683632132,4.92198366998
sainte-julie,45.8819723176,5.28452304614
saint-julien-sur-reyssouze,46.3997655501,5.1035429601899995
saint-julien-sur-veyle,46.20148620810001,4.9593563419999995
saint-just,45.4584826405,3.8094592184500002
saint-laurent-sur-saône,46.305148629399994,4.83949202669
saint-marcel,45.4979534787,6.56606269839
saint-martin-de-bavel,45.848212673999996,5.67889099153
saint-martin-du-frêne,46.135983782,5.5710601642799995
saint-martin-du-mont,46.620041328599996,5.29420271275
saint-martin-le-châtel,46.291445874,5.122917150909999
saint-maurice-de-beynost,45.8343709108,4.977262151740001
saint-maurice-de-gourdans,45.8200191939,5.16980415584
saint-maurice-de-rémens,45.9527471237,5.2708276475
saint-nizier-le-bouchoux,46.4528537121,5.1759906585
saint-nizier-le-désert,46.052861561,5.14246131764
sainte-olive,46.0142006121,4.9362489498199995
saint-paul-de-varax,46.0956691617,5.12762470203
saint-rambert-en-bugey,45.9504631708,5.44017084612
saint-rémy,46.3713101301,-0.523390967902
saint-sorlin-en-bugey,45.886308438,5.37608915006
saint-sulpice,45.56446140560001,5.84464359287
saint-trivier-de-courtes,46.4612969335,5.06679195727
saint-trivier-sur-moignans,46.0618477991,4.90158948884
saint-vulbas,45.822231510200005,5.27019602929
salavre,46.3635396668,5.347423871969999
samognat,46.264871578100006,5.5860768930599995
sandrans,46.065696154799994,4.98282673172
sault-brénaz,45.8654038798,5.404161040830001
sauverny,46.3126908233,6.110438364330001
savigneux,45.6223963471,4.1003957272000005
ségny,46.2935928404,6.072877437919999
seillonnaz,45.7976976614,5.49810658524
sergy,49.1828178666,3.5709221560800004
sermoyer,46.498199194399994,4.97856020441
serrières-de-briord,45.8133219416,5.44125880379
serrières-sur-ain,46.1466977757,5.45023362942
servas,44.1561490633,4.1929907451099995
servignat,46.4346497878,5.05559973107
seyssel,45.959506245,5.8529871085
simandre-sur-suran,46.2340471594,5.422408153049999
sonthonnax-la-montagne,46.2229768712,5.50566888767
souclin,45.8781798572,5.43058627512
sulignat,46.1735383313,4.9577238252599996
surjoux,46.030402108000004,5.799579206230001
sutrieu,45.931136780799996,5.649882481290001
talissieu,45.8637167128,5.72090411074
tenay,45.922698278,5.51453923595
thézillieu,45.893188359300005,5.59700638944
thil,49.4735980022,5.90616788349
thoiry,48.872462400399996,1.7978006206200001
thoissey,46.1700943481,4.79387095814
torcieu,45.92125055,5.40400282244
tossiat,46.1384790158,5.3040005592199995
toussieux,45.959898291,4.8289861061199995
tramoyes,45.8745670311,4.9639268325
tranclière,46.0970027075,5.26099875456
val-revermont,46.2803281838,5.360831651619999
trévoux,47.8886988261,-3.65660819595
valeins,46.1146467438,4.865516968680001
vandeins,46.217806795,5.08189056957
varambon,46.0433928197,5.2947944594
vaux-en-bugey,45.92012054560001,5.36353184193
verjon,46.3459093717,5.34853019646
vernoux,46.4848229774,5.10590413121
versailleux,45.985437347799994,5.11204819151
versonnex,45.926164989200004,5.927656767949999
vesancy,46.361076812700006,6.084706654750001
vescours,46.4743960759,5.02617426573
vésines,46.359339775100004,4.862658522019999
vieu-d'izenave,46.0853386653,5.54922100161
vieu,45.8898392612,5.68999399947
villars-les-dombes,45.9927150222,5.04507856642
villebois,45.8485624628,5.44711117486
villemotier,46.3458538978,5.31036160991
villeneuve,45.4775997565,3.1874603690499996
villereversure,46.1926750369,5.3947679407
villes,46.095429305799996,5.7569250415
villette-sur-ain,46.0099989032,5.25214547187
villieu-loyes-mollon,45.932014998,5.22953071636
viriat,46.250898563199996,5.223022492159999
virieu-le-grand,45.8464417872,5.63971940347
virieu-le-petit,45.9063608209,5.73707051523
virignin,45.7267387762,5.71282330936
vongnes,45.812905952399994,5.7253666676699995
vonnas,46.2168871367,4.997443737119999
abbécourt,49.599151865299994,3.1770823292699997
achery,49.6936187791,3.39735632148
acy,49.3471963534,3.41817609834
agnicourt-et-séchelles,49.7166573626,3.96043211816
aguilcourt,49.393650796,3.96803679426
aisonville-et-bernoville,49.930148161999995,3.5112020559300006
aizelles,49.484800291800006,3.8187025533099996
aizy-jouy,49.438425682399995,3.51149185429
alaincourt,47.9462772767,6.09996609571
allemant,48.7615346017,3.8160207845999996
ambleny,49.37626729390001,3.1833467917799996
ambrief,49.3215250088,3.40362196255
amifontaine,49.498787026,3.92278993322
amigny-rouy,49.6108275885,3.30289341579
ancienville,49.218638955900005,3.2080880977900006
andelain,49.6411808161,3.3695440898
anguilcourt-le-sart,49.6940879195,3.4282318243700005
anizy-le-château,49.5045058305,3.43129584952
annois,49.721067410799996,3.1761150140099996
any-martin-rieux,49.88237067520001,4.223513469069999
archon,49.744126618,4.119087658080001
arcy-sainte-restitue,49.2548799371,3.4782907633699995
armentières-sur-ourcq,49.1734232511,3.38789647903
arrancy,49.498901639799996,3.7647230005
artemps,49.7617999337,3.19725095546
assis-sur-serre,49.6803739117,3.55491692691
athies-sous-laon,49.575775068599995,3.69006632109
attilly,49.8554489068,3.15363305662
aubencheul-aux-bois,50.0239903854,3.26103215604
aubenton,49.8252306759,4.19066939985
aubigny-aux-kaisnes,49.772152463400005,3.1192565988
aubigny-en-laonnois,49.496882118500004,3.79282850765
audignicourt,49.4777157214,3.12718502825
audigny,49.8660645425,3.6312599901
augy,47.7699223048,3.6218851781800003
aulnois-sous-laon,49.619811749899995,3.60981962105
autels,49.760885533599996,4.22422505762
autremencourt,49.7051244442,3.79419867292
autreppes,49.8969849321,3.85601033505
autreville,48.490092044700006,5.85837068371
azy-sur-marne,49.003970109499996,3.3591321404500003
bagneux,48.7983229866,2.3098999521200003
bancigny,49.7978711595,4.03669866073
barenton-bugny,49.6218589779,3.66103056579
barenton-cel,49.6477517259,3.64469997459
barenton-sur-serre,49.66833977,3.6894061095199997
barisis-aux-bois,49.577979369,3.3280448746099998
barzy-en-thiérache,50.039537587299996,3.7490159540900003
barzy-sur-marne,49.0906196202,3.56214117254
bassoles-aulers,49.533281369899996,3.3849260483899997
vallées en champagne,48.9896915811,3.6048668602599996
bazoches-sur-vesles,49.307058678800004,3.61583126589
beaumé,49.821128183599996,4.15200066545
beaumont-en-beine,49.687463388199994,3.13133369335
beaurevoir,49.996560861199995,3.3297084253700002
beaurieux,50.1779588737,4.13702062275
beautor,49.648319958,3.33811188104
beauvois-en-vermandois,49.8339921767,3.10282045546
becquigny,49.6889391045,2.62140108119
belleau,48.8487345093,6.18702961708
bellenglise,49.9261057081,3.2441994692000002
belleu,49.356757434399995,3.34051688283
bellicourt,49.959299172899996,3.23020850852
benay,49.755094123,3.30909898139
bergues-sur-sambre,50.0294686238,3.7113710010000003
berlancourt,49.6785871051,3.08371773899
berlise,49.662229060600005,4.1131408689699995
bernot,49.8793651304,3.4866545639199997
berny-rivière,49.4113288887,3.14975272702
berrieux,49.4823563962,3.8521031838999997
berry-au-bac,49.4084985083,3.8985497785
bertaucourt-epourdon,49.627605657299995,3.3974898888599996
berthenicourt,49.778805817700004,3.3724724105799995
bertricourt,49.397528568199995,4.01146178698
berzy-le-sec,49.3172125296,3.29666086699
besmé,49.534168281899994,3.1647417136100002
besmont,49.823361306,4.11768907822
besny-et-loizy,49.5928792816,3.57657238799
béthancourt-en-vaux,49.629054777200004,3.1406465793500002
beugneux,49.2275759309,3.4164740370200004
beuvardes,49.1308547007,3.4916501910699997
bézu-le-guéry,49.010259183500004,3.22764610411
bézu-saint-germain,49.1046732888,3.4081251322400004
bichancourt,49.578776546,3.21263017443
bieuxy,49.4476050585,3.26985890807
bièvres,48.7567351109,2.2066520709799997
billy-sur-aisne,49.355655653199996,3.37609947556
billy-sur-ourcq,49.2215032882,3.29903267663
blanzy-lès-fismes,49.3372673738,3.671868408
blérancourt,49.5076223945,3.1517950218700004
blesmes,49.026491936300005,3.46405474705
bohain-en-vermandois,49.989032873999996,3.46522354976
bois-lès-pargny,49.7369350689,3.6541483453500003
boncourt,49.172513577299995,5.82265705678
bonneil,49.0082419817,3.3459478468
bonnesvalyn,49.1264049496,3.3254166177099997
bony,49.9908643724,3.22116002448
bosmont-sur-serre,49.739065321300004,3.86733568391
bouconville-vauclair,49.460621295699994,3.75658607824
boué,50.011455400100004,3.71432024852
bouffignereux,49.37883749979999,3.8462601462199997
bouresches,49.0671787396,3.31728226934
bourg-et-comin,49.402235400200006,3.65944342757
bourguignon-sous-coucy,49.5427641575,3.15422957657
bourguignon-sous-montbavin,49.5288056883,3.53777236106
bouteille,49.8778828965,3.9624353023500003
braine,49.348471931800006,3.5359662974400003
brancourt-en-laonnois,49.5176286609,3.41282321335
brancourt-le-grand,49.98081057,3.3939119210900004
brasles,49.0567927241,3.42453409652
braye-en-laonnois,49.4375773374,3.6097797628400006
braye-en-thiérache,49.7675470994,3.96265841899
bray-saint-christophe,49.7746700975,3.1407096509099994
braye,49.4221361409,3.37829006511
brécy,47.1299888038,2.6301656589599998
brenelle,49.368005207799996,3.5442035574
breny,49.1842783438,3.3497249540499996
brie,49.8792146401,2.94219919027
brissay-choigny,49.7228299725,3.3963976825200004
brissy-hamégicourt,49.7432786375,3.3996883790900005
brumetz,49.1103074474,3.15291445147
brunehamel,49.771810062600004,4.186493985719999
bruyères-sur-fère,49.1996571467,3.4453584646800004
bruyères-et-montbérault,49.523961552299994,3.6695469379800003
bruys,49.2621681637,3.56863439754
bucilly,49.8658103548,4.09323369949
bucy-le-long,49.388444718500004,3.39828602712
bucy-lès-cerny,49.579085256599996,3.4969083060000004
bucy-lès-pierrepont,49.646799808900006,3.9035831155300005
buire,49.9070296259,4.056745423040001
buironfosse,49.9577111138,3.8380160819999998
burelles,49.768704687399996,3.91196369709
bussiares,49.076591057200005,3.25026191909
buzancy,49.418434996,4.97363448798
caillouël-crépigny,49.617605563599994,3.12169527347
camelin,49.5205248253,3.1285485359400003
capelle,50.2401009671,3.56039393735
castres,43.6156511237,2.2378723158700002
catelet,50.0009779444,3.2423098464
caulaincourt,49.864658381999995,3.11126489473
caumont,44.021122311300005,0.9973632278
celles-lès-condé,49.0148161041,3.5700742384699993
celles-sur-aisne,49.4159264546,3.47446927431
cerizy,49.7670333979,3.3325502135400003
cerny-en-laonnois,49.4500150087,3.6798243945499998
cerny-lès-bucy,49.5778658953,3.54646763896
cerseuil,49.324784775,3.5174691908199995
cessières,49.5595788079,3.50190405701
chacrise,49.300200903500006,3.39759102537
chaillevois,49.508165454899995,3.5223460594800002
chalandry,49.6702675165,3.6444550953300006
chambry,48.998535556899995,2.8942216191400005
chamouille,49.4720646954,3.6706267306199996
champs,46.0616676024,3.0934532157300003
chaourse,49.700789811599996,3.9856229228099997
chapelle-sur-chézy,48.9492049177,3.37662807022
charly-sur-marne,48.9898678258,3.29365157876
charmel,49.112186603699996,3.54125960951
charmes,48.384807198800004,6.31788990054
chartèves,49.089812736899994,3.5087183847900003
chassemy,49.3783410842,3.5027146796699995
château-thierry,49.0564070801,3.3816000484299997
châtillon-lès-sons,49.7618503091,3.7031250885800002
châtillon-sur-oise,49.7938161671,3.41630401708
chaudardes,49.396256298100006,3.78942153696
chaudun,49.315022300900004,3.25276338247
chauny,49.619880673000004,3.21875355041
chavignon,49.479443714700004,3.5193689562599997
chavigny,48.6318722028,6.133877698689999
chavonne,49.40731621850001,3.56243209622
chérêt,49.5141661683,3.6871885138800002
chermizy-ailles,49.462988813900004,3.71995479046
chéry-chartreuve,49.255686721400004,3.6048462939699997
chéry-lès-pouilly,49.648838991800005,3.5941627127099998
chéry-lès-rozoy,49.722219288599995,4.1011989282
chevennes,49.818366417,3.7371313317
chevregny,49.466100945200004,3.59365333616
chevresis-monceau,49.7616780422,3.5837583969
chézy-en-orxois,49.126803188500006,3.16759094422
chézy-sur-marne,48.983996655,3.38226485102
chierry,49.035155356000004,3.43302324278
chigny,49.9298846139,3.77489645427
chivres-en-laonnois,49.626860678199996,3.85603255601
chivres-val,49.40292981979999,3.43836038727
chivy-lès-étouvelles,49.532630358199995,3.5856216880300003
chouy,49.2167334121,3.24708004454
cierges,49.1648316775,3.6041178884699994
cilly,49.7490011958,3.84000022806
ciry-salsogne,49.3674868367,3.46778299062
clacy-et-thierret,49.5524137158,3.5655718541199994
clairfontaine,49.97399451770001,3.9866065528199996
clamecy,47.4610140738,3.5100813118699996
clastres,49.7488769741,3.2302033407
clermont-les-fermes,49.660165432700005,3.94320327145
cœuvres-et-valsery,49.3295432232,3.15290453511
coincy,49.1065216017,6.269248124700001
coingt,49.792324639700006,4.09591303887
colligis-crandelain,49.4666159338,3.6304218192800004
colonfay,49.858458678299996,3.71138683561
commenchon,49.6416913377,3.1509543734900003
concevreux,49.37644786479999,3.78830446161
condé-en-brie,49.001610175299994,3.5611699996199997
condé-sur-aisne,49.4007552828,3.4657159108699997
condé-sur-suippe,49.4138370327,3.9449844902699995
condren,49.6370236167,3.27726632135
connigis,49.0359363932,3.5328728267100002
contescourt,49.791693460299996,3.23428350737
corbeny,49.4620558975,3.82654082441
corcy,49.254989209499996,3.1972436702300002
coucy-le-château-auffrique,49.5159709578,3.3154889295700003
coucy-lès-eppes,49.5566159059,3.77716711865
coucy-la-ville,49.540579235500005,3.3437215603400006
coulonges-cohan,49.1980463524,3.6277659298500002
coupru,49.0313536349,3.2743801467
courbes,49.6815888779,3.46004834981
courboin,48.9960917184,3.50690687861
courcelles-sur-vesle,49.348025885,3.57684035869
courchamps,47.1979795886,-0.157247285018
courmelles,49.3434328339,3.30199112892
courmont,47.61194255310001,6.6435584175499995
courtemont-varennes,49.0715288855,3.5416807977099998
courtrizy-et-fussigny,49.5140957547,3.79503800634
couvrelles,49.333984100900004,3.48486954064
couvron-et-aumencourt,49.6458776473,3.5244668458399997
coyolles,49.2133089693,3.0130617375099997
cramaille,49.2285541737,3.4522730307300002
craonne,49.447636834799994,3.7920328076099996
craonnelle,49.4254999308,3.77686483236
crécy-au-mont,49.4839031807,3.31195074309
crécy-sur-serre,49.698624191,3.6225656479800006
crépy,50.47250997770001,2.2032234882900004
crézancy,49.042871375699995,3.51138201699
croix-fonsomme,49.930676110200004,3.39430326005
croix-sur-ourcq,49.1598010602,3.35048905306
crouttes-sur-marne,48.9791200153,3.24757642131
crouy,49.4078535405,3.36640020468
crupilly,49.9313828796,3.75249198254
cuffies,49.408112680200006,3.32236958826
cugny,49.703100912299995,3.15424498862
cuirieux,49.6834404265,3.81994750866
cuiry-housse,49.2904033438,3.4884324850699997
cuiry-lès-chaudardes,49.3897631676,3.76227512623
cuiry-lès-iviers,49.7661751176,4.10397751712
cuissy-et-geny,49.4034575347,3.7061230780300005
cuisy-en-almont,49.4207417064,3.24887510168
cutry,49.4812435903,5.73774950796
cys-la-commune,49.383716384799996,3.57235420125
dagny-lambercy,49.769056231099995,4.04218248631
dallon,49.8240617542,3.23031219742
dammard,49.1470522556,3.1771970963200005
dampleux,49.2414407733,3.14413128827
danizy,49.6665738585,3.4008955701300003
dercy,49.709705981000006,3.6849980378400002
deuillet,49.628599118400004,3.36051598302
dhuizel,49.360220129700004,3.6148759077099997
dizy-le-gros,49.6355575735,4.013128802340001
dohis,49.7667554096,4.14178746545
dolignon,49.7338298517,4.086378827930001
dommiers,49.3290731499,3.21634686939
domptin,49.0156995656,3.2729649777900005
dorengt,49.9652064178,3.7033753973000003
douchy,49.7940905147,3.13035849025
dravegny,49.239190605299996,3.6412845380300003
droizy,49.277356435200005,3.38965007811
dury,49.8524314645,2.27669568816
ébouleau,49.6781110152,3.88259465732
effry,49.9191180654,3.9879017322300006
englancourt,49.925882584499995,3.8071869444499997
épagny,47.452346175699994,5.0497367865400005
éparcy,49.8861370225,4.0702371205
épaux-bézu,49.1029988371,3.3535935028500004
épieds,47.13483675770001,-0.038575848015400004
épine-aux-bois,48.89928040149999,3.44384138078
eppes,49.5523855068,3.73980858367
erlon,49.734827824899995,3.70534450333
erloy,49.9195909244,3.83764920476
esquéhéries,49.982230091400005,3.75309920982
essigny-le-grand,49.7740780116,3.27214459324
essigny-le-petit,49.8961825414,3.36742260207
essises,48.9666904843,3.41396491705
essômes-sur-marne,49.034113204700006,3.3401417418299997
estrées,50.2977355864,3.07513052042
étampes-sur-marne,49.031755853599996,3.41777664616
étaves-et-bocquiaux,49.9310354275,3.45081301205
étouvelles,49.5186450995,3.58156180986
étréaupont,49.896263382200004,3.9234891528800007
étreillers,49.832577622799995,3.1580006860900003
étrépilly,49.0420868725,2.93051906568
étreux,49.9996010721,3.65890491685
évergnicourt,49.4564306975,4.03631753944
faucoucourt,49.53344182439999,3.46663902605
faverolles,49.6455544304,2.61943483377
fayet,43.8035569048,2.97747865298
fère,49.66628280729999,3.36938834693
fère-en-tardenois,49.1875000917,3.51106425515
ferté-chevresis,49.7409973498,3.55129770695
ferté-milon,49.1759874423,3.14237641756
fesmy-le-sart,50.048215485600004,3.69825469199
festieux,49.5252642949,3.76013631694
fieulaine,49.9018502295,3.44594045878
filain,47.525390612799995,6.17761888679
flamengrie,50.3066443243,3.7227388963199997
flavigny-le-grand-et-beaurain,49.8865505663,3.6740640936699998
flavy-le-martel,49.7047240534,3.1945140357499997
fleury,49.7357232045,2.11453536529
fluquières,49.800435087,3.15658582012
folembray,49.54928205939999,3.29319165625
fonsomme,49.9012467271,3.39650664791
fontaine-lès-clercs,49.8078439274,3.21253412905
fontaine-lès-vervins,49.8537390603,3.9054302536699996
fontaine-notre-dame,50.1686299394,3.1683036182700004
fontaine-uterte,49.925284167200005,3.36796234214
fontenelle,47.6208281317,6.9563673377
fontenoy,47.65272901149999,3.29197116291
foreste,49.8055794029,3.0961593670700003
fossoy,49.044990122,3.4852312671499996
fourdrain,49.6194184451,3.4604912111800004
francilly-selency,49.8546596853,3.22822036861
franqueville,50.0953559703,2.0966149018
fresnes-en-tardenois,49.142794827299994,3.54893406985
fresnes-sous-coucy,49.554807858500006,3.3701802250800004
fresnoy-le-grand,49.9540724704,3.41858032499
fressancourt,49.6284783975,3.4272791042699997
frières-faillouël,49.6835552621,3.2368043034099996
froidestrées,49.9427092508,3.9103217524800002
froidmont-cohartille,49.6818768902,3.7207084484900004
gandelu,49.083208910399996,3.18156231552
gauchy,49.8234688599,3.2864918966100003
gercy,49.8158108138,3.8713327730900002
gergny,49.9326319225,3.92972384714
germaine,49.118840422299996,4.03185929464
gernicourt,49.395238235200004,3.8638210990900004
gibercourt,49.7393520234,3.28269647304
gizy,49.6104960814,3.7678615219699996
gland,47.8196707151,4.22248259581
goudelancourt-lès-berrieux,49.4946764579,3.8585867096800004
goudelancourt-lès-pierrepont,49.6783296824,3.85162740345
goussancourt,49.1608459229,3.65658681802
gouy,49.3576284402,1.14309716518
grandlup-et-fay,49.6512687794,3.7364695046800005
grandrieux,49.7291718471,4.1879249496
gricourt,49.886994775699996,3.2396081746599994
grisolles,43.8224483737,1.28670830479
gronard,49.796319691499995,3.88176918551
grougis,49.9508110437,3.53098081744
grugies,49.810094132799996,3.2751623814
guignicourt,49.4433017606,3.95534582458
guise,49.8960415076,3.6247606292900003
guivry,49.651625761000005,3.1210347649299996
guny,49.512015308500004,3.26082658052
guyencourt,49.3573380108,3.8413293088300002
hannapes,49.9771158104,3.6144264223199998
happencourt,49.782590561899994,3.1831286327
haramont,49.2872759039,3.0314897710900004
harcigny,49.80256362,3.9828364762
hargicourt,49.7135084785,2.52045231855
harly,49.8407051764,3.3348472423900004
hartennes-et-taux,49.2789534457,3.3576328763300003
hary,49.797388651000006,3.91927403736
lehaucourt,49.91176067600001,3.2767523543599997
hautevesnes,49.108846937399996,3.2356780283999997
hauteville,48.7048932149,1.62739461782
haution,49.8721128525,3.8271988824900003
hérie,49.8838269882,4.04360657052
hérie-la-viéville,49.8222697536,3.6537632472400006
hinacourt,49.7459956466,3.29422566384
hirson,49.9426458618,4.1048373284099995
holnon,49.8612556888,3.20085325892
homblières,49.8577543083,3.3749512798400003
houry,49.7861780633,3.8480641607699995
housset,49.7961649956,3.69539262425
iron,49.9504309458,3.6652978952999997
itancourt,49.803442885,3.3494275252700003
iviers,49.7858863872,4.13552902559
jaulgonne,49.0895236955,3.53359601877
jeancourt,49.9288562683,3.1477880531299998
jeantes,49.812727625200004,4.06715502895
joncourt,49.960148779799994,3.30407272701
jouaignes,49.292841878900006,3.5281862842500002
jumencourt,49.5122950231,3.3493979238300002
jumigny,49.408383460299994,3.7252466928199994
jussy,47.7166785125,3.5697968905
juvigny,46.215993483599995,6.290176795700001
juvincourt-et-damary,49.4468853425,3.89147198339
laffaux,49.4494770874,3.4299569321599996
laigny,49.86314663979999,3.8613362651800003
lanchy,49.8292105187,3.0741542808899998
landifay-et-bertaignemont,49.8255553996,3.60399989958
landouzy-la-cour,49.8441415789,3.99358286375
landouzy-la-ville,49.85628901850001,4.05045506584
landricourt,48.6128944545,4.8069011125
laniscourt,49.546911872299994,3.5340674735800004
laon,49.567972489700004,3.6208956190199997
lappion,49.589801528100004,3.96457967258
largny-sur-automne,49.2610748419,3.05411123113
latilly,49.153886311899996,3.31218468893
launoy,49.262998413199995,3.4054374313999998
laval-en-laonnois,49.5029905064,3.5875824221199997
lavaqueresse,49.9465387553,3.7166420191000005
laversine,49.3528718857,3.15459651522
lemé,49.843926232,3.7576717994
lempire,49.995342945299996,3.17401503527
lerzy,49.9499258495,3.88135093149
leschelle,49.96057092270001,3.77740709683
lesdins,49.9043632178,3.3146211786900004
lesges,49.309828392,3.50034767893
lesquielles-saint-germain,49.931687068,3.6280864431800004
leuilly-sous-coucy,49.4734455044,3.35288205414
leury,49.4269529918,3.3413092217799996
leuze,49.8578215993,4.16963845435
levergies,49.9345380686,3.3118557921700003
lhuys,49.272852804799996,3.5423063528600003
licy-clignon,49.10212331899999,3.26534900839
lierval,49.487486751700004,3.6222769178900003
liesse-notre-dame,49.6108544067,3.81711786834
liez,46.369853237600005,-0.70502476758
limé,49.323494046899995,3.55539520178
lislet,49.6757265054,4.02084295692
lizy,49.511950542200005,3.4794161356599997
logny-lès-aubenton,49.8330144048,4.2201280926999996
longpont,49.2843362442,3.22069360555
septvallons,49.3603355862,3.6556784439699994
lor,49.52966687439999,4.05453884406
louâtre,49.2527947078,3.2415362989700003
loupeigne,49.2411071956,3.5251073823000003
lucy-le-bocage,49.0549612755,3.2761670455500003
lugny,46.480580571800004,4.8191233990499995
luzoir,49.9271348987,3.9602509033699995
ly-fontaine,49.732033107,3.31099377857
maast-et-violaine,49.2931740531,3.45694908531
mâchecourt,49.6516966172,3.8376599578300006
macogny,49.159042909700005,3.2178470864200004
macquigny,49.873238745200005,3.57070489565
magny-la-fosse,49.937125900699996,3.2765403188200004
maissemy,49.8929443672,3.1890371838
maizy,49.377259904,3.7161652609400004
malmaison,49.5165178767,4.000487179119999
malzy,49.921297034,3.73000059946
manicamp,49.5650654162,3.1796263998799996
marchais,49.5850707567,3.82150148626
dhuys et morin-en-brie,48.8935786183,3.4926812128300004
marcy,45.913910555200005,4.67605163558
marcy-sous-marle,49.7457495163,3.7345388114899998
marest-dampcourt,49.59443854,3.1462712468799996
mareuil-en-dôle,49.2424552782,3.5611432673900003
marfontaine,49.8080469097,3.7639268819
margival,49.432719029,3.4057297730299996
marigny-en-orxois,49.0526386182,3.22281001734
marizy-sainte-geneviève,49.1825477943,3.1981424760799997
marizy-saint-mard,49.1822693098,3.22799114728
marle,49.7451393478,3.7652054501
marly-gomont,49.8913737841,3.7849871912
martigny,49.86022782479999,1.14443608077
martigny-courpierre,49.4900405005,3.6867077549
mauregny-en-haye,49.540623087700006,3.79762834314
mayot,49.709011725500005,3.39804766077
mennessis,49.6918385873,3.27543313236
menneville,50.6741251308,1.86280714354
mennevret,49.9919704555,3.5588413342800003
mercin-et-vaux,49.370562745600004,3.2707014063499997
merlieux-et-fouquerolles,49.5137172169,3.4993298322400004
mesbrecourt-richecourt,49.710385665,3.5373973307599997
mesnil-saint-laurent,49.8290188644,3.3645401261699996
meurival,49.3567698663,3.7590616764999996
mézières-sur-oise,49.7918999939,3.38740833653
mézy-moulins,49.063007488800004,3.5122782761
missy-aux-bois,49.334940725600006,3.2466297063300003
missy-lès-pierrepont,49.6279354887,3.7841954065
missy-sur-aisne,49.385589841800005,3.43829672684
molain,46.8251611212,5.81711896426
molinchart,49.5624802928,3.53979641476
monampteuil,49.4760084468,3.5736017678300005
monceau-le-neuf-et-faucouzy,49.7845792788,3.63110860935
monceau-lès-leups,49.661778927200004,3.48549133203
monceau-le-waast,49.6217435488,3.7165666859699993
monceau-sur-oise,49.909773274399996,3.6994743258800007
mondrepuis,49.963744126899996,4.05128113518
monnes,49.1458358775,3.22861820737
mons-en-laonnois,49.537945182799994,3.55478457954
montaigu,46.97598008520001,-1.31364530268
montbavin,49.5295376592,3.5131978982099996
montbrehain,49.964244960900004,3.35609147368
montchâlons,49.5131917425,3.72718965805
montcornet,49.8356951738,4.65045194231
mont-d'origny,49.8514997521,3.5267356840599997
montescourt-lizerolles,49.7360396205,3.26188923395
montfaucon,44.6868814093,1.5851668728100001
montgobert,49.289626635,3.1740412906299995
montgru-saint-hilaire,49.176885103800004,3.32722209943
monthenault,49.4892743465,3.65592404446
monthiers,49.1085987235,3.2943777665400003
monthurel,49.027531080500005,3.55187396803
montigny-en-arrouaise,49.9120067618,3.48306674241
montigny-l'allier,49.1221418457,3.10744372815
montigny-le-franc,49.6874788196,3.9183982393
montigny-lengrain,49.3726900463,3.09924630011
montigny-lès-condé,48.9830055534,3.56635546224
montigny-sous-marle,49.7411090858,3.80397947574
montigny-sur-crécy,49.7149248587,3.58368023998
montlevon,48.9627005485,3.5154379804199998
montloué,49.6682396007,4.0627582560699995
mont-notre-dame,49.2921467742,3.5821661713
montreuil-aux-lions,49.0264607134,3.19454438663
mont-saint-jean,48.243595578500006,-0.113254973959
mont-saint-martin,49.545958518999996,5.77946566153
mont-saint-père,49.0816980947,3.47715449247
morcourt,49.8856864737,2.65779356181
morgny-en-thiérache,49.7544947391,4.07631392389
morsain,49.461680763100006,3.19122405616
mortefontaine,49.1222609821,2.60876023484
mortiers,45.3992961436,-0.322350930618
moulins,48.0087571587,-1.36287785518
moussy-verneuil,49.4126815323,3.6371813298699998
moÿ-de-l'aisne,49.750274961,3.35100553228
muret-et-crouttes,49.278141795299994,3.43464742094
muscourt,49.3595795698,3.7435023923300004
nampcelles-la-cour,49.7765756098,4.00209910519
nampteuil-sous-muret,49.30514039689999,3.43398003516
nanteuil-la-fosse,49.433801081400006,3.4480004143699996
nanteuil-notre-dame,49.1907421685,3.4120716301800003
nauroy,49.9508154668,3.2586198097600003
nesles-la-montagne,48.9997837313,3.44587892818
neufchâtel-sur-aisne,49.4367296826,4.0236471269
neuflieux,49.61637882310001,3.1599684947099997
neuilly-saint-front,49.1626366671,3.26436269893
neuve-maison,49.9286429779,4.04086730255
neuville-bosmont,49.7145039747,3.8336727499400003
neuville-en-beine,49.6762298475,3.15600362361
neuville-housset,49.78813793770001,3.73171627307
neuville-lès-dorengt,49.983064353,3.68565926181
neuville-saint-amand,49.8206477091,3.33360991741
neuville-sur-ailette,49.469514141400005,3.69819946444
neuville-sur-margival,49.45487297729999,3.3986658815
neuvillette,50.2084339297,2.3146303419
nizy-le-comte,49.574361853,4.030648182059999
nogentel,49.0140758623,3.40340404208
nogent-l'artaud,48.9426222247,3.332802902
noircourt,49.6691648747,4.09433809595
noroy-sur-ourcq,49.2041824443,3.20698565652
nouvion-en-thiérache,50.00868671520001,3.8092928819800003
nouvion-et-catillon,49.707566739099995,3.4935972934300006
nouvion-le-comte,49.707983078299996,3.46084868911
nouvion-le-vineux,49.5092763308,3.6053512660000004
nouvron-vingré,49.4333492,3.18803179842
noyales,49.908255949099996,3.53848565514
noyant-et-aconin,49.3319620657,3.33416303776
œuilly,49.0634098763,3.7975701425599997
ognes,49.0992468739,2.82917802889
ohis,49.9184307239,4.01170912127
oigny-en-valois,49.2137237953,3.1302728623
oisy,50.3522308671,3.43281738814
ollezy,49.729996536,3.1460726169499997
omissy,49.8804267246,3.2978803670700003
orainville,49.3759679828,4.01565856496
orgeval,48.9164887331,1.9692877357299998
origny-en-thiérache,49.88619046229999,4.011011497569999
origny-sainte-benoite,49.8268502674,3.52909324665
osly-courtil,49.39953013109999,3.2373651158200003
ostel,49.4299692983,3.56538871192
oulches-la-vallée-foulon,49.4311311984,3.7396629089599998
oulchy-la-ville,49.2098503819,3.3406252067900004
oulchy-le-château,49.207070180600006,3.38202413773
paars,49.3302779346,3.6026792204900002
paissy,49.4263466952,3.7014989195
pancy-courtecon,49.460688591899995,3.6498779519599998
papleux,50.016916774399995,3.8802378128900004
parcy-et-tigny,49.27037043520001,3.32906709704
parfondeval,48.480087517200005,0.506050858158
parfondru,49.538521341199996,3.70351915315
pargnan,49.39423914859999,3.70308940891
pargny-filain,49.462905569200004,3.5392910865900005
pargny-la-dhuys,48.954550957600006,3.5635737059300006
pargny-les-bois,49.7323072713,3.6178833052900004
parpeville,49.7943758027,3.56422835389
pasly,49.402280013100004,3.2979952799900003
passy-en-valois,49.162161833199995,3.18418881622
passy-sur-marne,49.0663377762,3.5743880825599996
pavant,48.9528924605,3.2839038288899998
pernant,49.3756522114,3.23031459047
pierremande,49.566550412,3.25836777343
pierrepont,49.418330526400005,5.70916931035
pignicourt,49.40919109520001,4.0300596148
pinon,49.488480349,3.46156583024
pithon,49.7562365167,3.1042209394599998
pleine-selve,45.3271088387,-0.582258150086
plessier-huleu,49.2388752756,3.34814266149
ploisy,49.330941238,3.27456677749
plomion,49.818881662299994,4.01999597737
ployart-et-vaurseine,49.493253698000004,3.74014252866
pommiers,45.9582307321,4.6884680442
pont-arcy,49.39184603100001,3.62003836186
pontavert,49.417619819399995,3.8205181537699997
pontru,49.921599488999995,3.20120191987
pontruet,49.9148506173,3.2294738031
pont-saint-mard,49.493979148,3.2793409382200003
pouilly-sur-serre,49.6778615755,3.58559308314
prémont,50.0143067533,3.39725258008
prémontré,49.5493580112,3.4177638357999998
presles-et-boves,49.3900726835,3.5401398002900004
presles-et-thierny,49.514460361400005,3.62483361601
priez,49.1306197467,3.26280717645
prisces,49.7721688271,3.8627414690599995
proisy,49.8906172484,3.7524112094699995
proix,49.9022161869,3.57346862626
prouvais,49.4760906978,3.97215349857
proviseux-et-plesnoy,49.477722477200004,4.0158784311
puiseux-en-retz,49.2925861417,3.13448879571
puisieux-et-clanlieu,49.8472444334,3.66367663689
quierzy,49.5641090409,3.14613795931
quincy-basse,49.509143700100005,3.38465364189
quincy-sous-le-mont,49.3082323924,3.5590642191199993
raillimont,49.701759318,4.15934737957
ramicourt,49.957968471099996,3.3310568696700003
regny,49.8343070304,3.42061400129
remaucourt,49.6012128351,4.2320912777099995
remies,49.679367975699996,3.5247806426099997
remigny,46.9096727588,4.7242069921
renansart,49.7340931411,3.45338513198
renneval,49.739171401899995,4.0367417006599995
résigny,49.7413860683,4.210002714090001
ressons-le-long,49.3881779495,3.1411755288
retheuil,49.31890911399999,3.00378064988
reuilly-sauvigny,49.05060241060001,3.56448771259
ribeauville,50.0366991182,3.58754496166
ribemont,49.788543658100004,3.47018526049
rocourt-saint-martin,49.1453872803,3.3891401292000003
rocquigny,50.0557736792,2.9241753570899998
rogécourt,49.6492919859,3.4155007435400004
rogny,49.766712979,3.8210467278800007
romeny-sur-marne,48.9852721229,3.3344209064999997
romery,49.0965097553,3.9129054628300004
ronchères,47.6589905273,3.1208782628600003
roucy,49.3745878159,3.8202450209099994
rougeries,49.8056045885,3.7869478733099995
roupy,49.812057203100004,3.18195896491
rouvroy,50.399208045900004,2.90489431252
rouvroy-sur-serre,49.71536709310001,4.17597798145
royaucourt-et-chailvet,49.5119671872,3.53821206051
rozet-saint-albin,49.198218068500005,3.2973876046099995
rozières-sur-crise,49.3227443516,3.3710159280400003
rozoy-bellevalle,48.924462257799995,3.45003603667
grand-rozoy,49.2423109815,3.3814736013099997
rozoy-sur-serre,49.706447861,4.13134010865
saconin-et-breuil,49.3506902358,3.24672146323
sains-richaumont,49.827606868500006,3.70490926861
saint-algis,49.8944330304,3.8254644746300004
saint-aubin,48.7149626666,2.1395315453
saint-bandry,49.3638994868,3.14949009826
saint-christophe-à-berry,49.4290499245,3.12949472733
saint-clément,48.2247837392,3.3067797098500002
saint-erme-outre-et-ramecourt,49.518283372700004,3.86386406835
saint-eugène,46.7303096317,4.22025491336
sainte-geneviève,49.6585101081,1.4229335255899997
saint-gengoulph,49.1189499126,3.21526676033
saint-gobain,49.595388721300004,3.39411143672
saint-gobert,49.803760596800004,3.83219152047
saint-mard,49.689100773599996,2.7565588401
saint-martin-rivière,50.044008328000004,3.55486334419
saint-michel,44.045351636099994,0.9375204525049999
saint-nicolas-aux-bois,49.5970302282,3.4389800339199996
saint-paul-aux-bois,49.544312122799994,3.2026043724799997
saint-pierre-aigle,49.3121621719,3.1960264915499996
saint-pierre-lès-franqueville,49.824528103999995,3.81406121819
saint-pierremont,48.4394574604,6.583324618119999
sainte-preuve,49.617303749399994,3.9109832426699995
saint-quentin,49.8472336321,3.27769499462
saint-rémy-blanzy,49.2457583592,3.30773725902
saint-simon,44.7006878199,1.8281141355500001
saint-thibaut,49.2891405131,3.6165032708699996
saint-thomas,43.51477769270001,1.08883796695
samoussy,49.586870658900004,3.74329094453
sancy-les-cheminots,49.439380682700005,3.47649552313
saponay,49.214383151599996,3.4843798535800006
saulchery,48.9756405479,3.31260850509
savy,49.8343646886,3.19764190963
seboncourt,49.9626066437,3.4942599816300004
selens,49.4943706034,3.2058604365599996
selve,44.1061917162,2.5363870426900004
septmonts,49.3384597812,3.36210276584
septvaux,49.5697880929,3.38679579518
sequehart,49.932026051099996,3.34096519199
serain,50.0246912807,3.36304349229
seraucourt-le-grand,49.780519235,3.21829749297
serches,49.33206640979999,3.4495149506800002
seringes-et-nesles,49.211653760699996,3.5588501644800004
sermoise,49.3724753933,3.44697180612
serval,49.352069983999996,3.6827018422099997
servais,49.619408318199994,3.3419732575200003
séry-lès-mézières,49.7647253763,3.4232131491900004
silly-la-poterie,49.1959898805,3.15010276155
sinceny,49.5910938147,3.26877002882
sissonne,49.5639648451,3.92032139579
sissy,49.8106555228,3.42084647603
soissons,49.3791742979,3.32471758491
soize,49.6977848851,4.08583269025
sommelans,49.135391999999996,3.2930230366299997
sommeron,49.956968833299996,3.9457328821499997
sommette-eaucourt,49.727418066000006,3.1194780847099994
sons-et-ronchères,49.768946397200004,3.66761782458
sorbais,49.9137614487,3.8830248252099997
soucy,48.250813881899994,3.32683528652
soupir,49.4106784751,3.59989736789
sourd,49.8656956341,3.7520801253900005
surfontaine,49.74714210810001,3.47979315066
suzy,49.556451044,3.4609189685300006
taillefontaine,49.309932805600006,3.04962539056
tannières,49.287337094899996,3.5504089287300005
tartiers,49.4400811642,3.2315655627599997
tavaux-et-pontséricourt,49.7296446334,3.9190519179
tergnier,49.6572646109,3.29924077478
terny-sorny,49.4472096599,3.3694279118700003
thenailles,49.8149576709,3.9523247949300004
thenelles,49.8314948078,3.45894075748
thiernu,49.7649515663,3.77987535834
thuel,49.6413105954,4.08903091475
torcy-en-valois,49.0828638075,3.27358839647
toulis-et-attencourt,49.6970260523,3.75052883427
travecy,49.6858217171,3.34481845935
trefcon,49.859082365,3.0886464725400002
trélou-sur-marne,49.0916773783,3.6015790691300005
troësnes,49.1981484588,3.1768274022000003
trosly-loire,49.517579481800006,3.23167717474
trucy,49.472149818000005,3.6109231831699997
tugny-et-pont,49.770403298599994,3.16072597634
tupigny,49.9705608416,3.5939962246399997
ugny-le-gay,49.661004526400006,3.15663213439
urcel,49.4940437763,3.55713233917
urvillers,49.789750793100005,3.31629966887
vadencourt,50.0174902496,2.49046113345
vailly-sur-aisne,49.4108623288,3.5201205980199997
vallée-au-blé,49.85717250810001,3.794382858
vallée-mulâtre,50.0255708699,3.5606332993699996
variscourt,49.4148891865,3.98066282251
vassens,49.4754669876,3.15640761403
vasseny,49.355627525200006,3.48910249175
vassogne,49.4200443432,3.7297919110400004
vaucelles-et-beffecourt,49.5206900038,3.55877460724
vaudesson,49.475000173599994,3.48695975523
vauxrezis,49.4205077489,3.2770933523799997
vauxaillon,49.4770651148,3.4082375163800003
vaux-andigny,50.0111472485,3.5229540020099996
vauxbuin,49.357283338,3.2954939193799997
vaux-en-vermandois,49.823866844399994,3.1357898737400003
vauxtin,49.3454673056,3.60165884249
vendelles,49.90783138729999,3.1381693574000002
vendeuil,49.719870808,3.3449169008
vendhuile,50.0120254621,3.2088861406299998
vendières,48.873171096099995,3.44301787703
vendresse-beaulne,49.4317132906,3.65690243676
vénérolles,49.990343303100005,3.63008652624
venizel,49.3676425771,3.39248543249
verdilly,49.0744862502,3.42189905232
verguier,49.9231401902,3.1693638542299998
grand-verly,49.9434199886,3.58138282505
petit-verly,49.958149363100006,3.56275189688
vermand,49.8839098456,3.15146515668
verneuil-sous-coucy,49.5451146096,3.31890035764
verneuil-sur-serre,49.6436030037,3.67943401416
versigny,49.1606951564,2.78351758115
vervins,49.8351798708,3.92522602825
vesles-et-caumont,49.67509326770001,3.7895087905300002
veslud,49.5387490108,3.7306766349300005
veuilly-la-poterie,49.0832976282,3.2188650234
vézaponin,49.466749819300006,3.22298094528
vézilly,49.1874443601,3.68274149419
vic-sur-aisne,49.410747629,3.10912550549
vichel-nanteuil,49.18224862939999,3.2988993570800003
viel-arcy,49.3789345254,3.6258944359599994
viels-maisons,48.9070425737,3.39571892839
vierzy,49.2868570454,3.2775949069599997
viffort,48.9576165601,3.4697259440199995
vigneux-hocquet,49.7440393657,3.9948916559599996
ville-aux-bois-lès-dizy,49.662657296800006,3.98152083729
ville-aux-bois-lès-pontavert,49.4265972983,3.8510826284400004
villemontoire,49.3000199564,3.3218967224299996
villeneuve-saint-germain,49.3789013616,3.3617581580299998
villeneuve-sur-fère,49.1706936984,3.4759384295899998
villequier-aumont,49.66062401479999,3.19834244186
villeret,48.481503616000005,4.58651626543
villers-agron-aiguizy,49.163207245699994,3.71636244573
villers-cotterêts,49.2392000574,3.09612191097
villers-hélon,49.2649355463,3.26786134731
villers-le-sec,47.5827042725,6.23899893135
villers-lès-guise,49.925566198199995,3.6824166459800005
villers-saint-christophe,49.779691415500004,3.0909989749599998
villers-sur-fère,49.1715150184,3.53152683586
ville-savoye,49.292980751099996,3.63762361829
villiers-saint-denis,48.9977206046,3.26104064101
vincy-reuil-et-magny,49.7140295341,4.045121279669999
viry-noureuil,49.6385456387,3.24823591959
vivaise,49.6228688465,3.5643194326699996
vivières,49.305188540100005,3.09196075945
voharies,49.7871481245,3.79203868186
vorges,49.5175796033,3.6510536902599995
voulpaix,49.8387507375,3.83266238617
voyenne,49.715879331400004,3.73841251024
vregny,49.414061985299995,3.4197356356
vuillery,49.430683191099995,3.3879452426300003
wassigny,50.017642986000006,3.5994473153900004
watigny,49.9163639357,4.20040317785
wiège-faty,49.882798639099995,3.7134240171
wimy,49.9480535708,3.99735885106
wissignicourt,49.5301896159,3.4410207370699997
abrest,46.0955766716,3.45052482175
agonges,46.6180197037,3.14884278466
ainay-le-château,46.7155678491,2.72085613518
andelaroche,46.2501153137,3.74613192809
archignat,46.36708646020001,2.41001210443
arfeuilles,46.1431515084,3.74329110559
arpheuilles-saint-priest,46.2269459869,2.66485932203
arronnes,46.0520854633,3.57527535836
aubigny,49.887570915,2.4717309675799997
audes,46.4607707399,2.55904786289
aurouër,46.6830651059,3.30496843823
autry-issards,46.544575550299996,3.12273629246
avermes,46.5983891991,3.3186329397000005
avrilly,48.53716556,-0.617581790397
barberier,46.2199674425,3.2493071644800002
barrais-bussolles,46.2837408507,3.6976601324400002
bayet,46.257529442,3.27682744078
beaulon,46.587441192600004,3.6689998477599994
beaune-d'allier,46.272817743000004,2.8909137182999998
bègues,46.1229614254,3.1427358287700002
bellenaves,46.2055132294,3.06605990143
bellerive-sur-allier,46.1214944433,3.3971906213599996
bert,46.3276009713,3.7017678846199997
bessay-sur-allier,46.4507552937,3.36752338544
besson,46.480858876800006,3.25477616923
bézenet,46.3323101362,2.84939307523
billezois,46.2094826701,3.5768826525199997
billy,47.3138942249,1.54417512576
biozat,46.0812713782,3.2886851863200004
bizeneuille,46.401574601099995,2.7307165821599995
blomard,46.288337177399995,2.9626756681
bost,46.1834084633,3.50582300177
boucé,48.6324251717,-0.09554988946799998
bouchaud,46.3073055814,3.90705346696
bourbon-l'archambault,46.583681911300005,3.05141625983
braize,46.658636225,2.6542748449799998
bransat,46.3291248847,3.21707091921
bresnay,46.433569239700006,3.2489933053900004
brethon,46.584145728100005,2.7152566265400004
breuil,49.736910271199996,2.9490254856299996
broût-vernet,46.196172741800005,3.2885165147099995
brugheas,46.0728347147,3.3660599245
busset,46.05689126520001,3.51533127883
buxières-les-mines,46.469834132299994,2.95493090181
celle,43.384370351,5.99861411611
cérilly,48.17723769649999,3.6255019572300005
cesset,46.299384754799995,3.19908944342
chabanne,46.0244474804,3.75155529865
chambérat,46.413966555600005,2.42552132856
chamblet,46.328387918599994,2.7133144633899997
chantelle,46.236535583199995,3.16046709261
chapeau,46.492220867200004,3.51548779612
chapelaude,46.4276365849,2.50433585569
chapelle,45.42173032270001,6.29384300807
chapelle-aux-chasses,46.6598285232,3.5302170317800003
chappes,45.865339438599996,3.2267464590099997
chareil-cintrat,46.2662583678,3.2297935311000003
charmeil,46.1598815241,3.39334670689
charroux,46.1403226222,0.415210425845
chassenard,46.441587471000005,3.9732986256699996
château-sur-allier,46.7817092789,2.9871611501200004
châtel-de-neuvre,46.4160449941,3.29822520917
châtel-montagne,46.1000720289,3.7165716838800003
châtelperron,46.396865873900005,3.6331376087300002
châtelus,45.5897631201,4.46215474469
châtillon,48.8034091756,2.28799131883
chavenon,46.4219939323,2.9517074129500003
chavroches,46.353495458999994,3.5968484021900005
chazemais,46.4871767183,2.5191044904599997
chemilly,47.641685295100004,6.0177515817
chevagnes,46.6082038568,3.5640329713099996
chezelle,46.2129757558,3.1115482090599995
chézy,46.612475751999995,3.45934804797
chirat-l'église,46.2460009301,3.03251610569
chouvigny,46.125738044399995,3.0049246424900002
cindré,46.3230930256,3.5511028974400003
cognat-lyonne,46.107409547799996,3.29764762028
colombier,47.669789545600004,6.21883495528
commentry,46.278746685200005,2.7491673467299997
contigny,46.3463711102,3.3148378104100003
cosne-d'allier,46.482962805,2.82323006329
coulandon,46.5546535461,3.24541387326
coulanges,47.539017611599995,1.2085397343700002
couleuvre,46.6740683179,2.8968553444599996
courçais,46.463962183,2.44909172775
coutansouze,46.205276583,3.00755651899
couzon,46.644375091099995,3.11347416578
créchy,46.2696885601,3.42387984399
cressanges,46.444309273900004,3.17072489552
creuzier-le-neuf,46.178123469700004,3.46274147991
creuzier-le-vieux,46.160598874499996,3.4343508972600003
cusset,46.1377738304,3.48296708451
deneuille-lès-chantelle,46.252932183999995,3.1458559831
deneuille-les-mines,46.37829245020001,2.77557506066
désertines,48.4739929091,-0.8757112225370001
deux-chaises,46.3749069193,3.04059198306
diou,47.0454733452,2.00611539537
domérat,46.3681510176,2.54346219645
dompierre-sur-besbre,46.5305895294,3.67644076991
donjon,46.3449718057,3.7999456795
doyet,46.3433946285,2.7916107500300003
droiturier,46.2267468451,3.7048886896599997
durdat-larequille,46.25400406479999,2.69686439225
ébreuil,46.117654363199996,3.0736312115099995
échassières,46.1956641038,2.94596916837
escurolles,46.1418285128,3.2679591797099996
espinasse-vozelle,46.1292798016,3.33501762138
estivareilles,45.4305784876,4.0166187640699995
étroussat,46.220297646599995,3.22102195142
ferrières-sur-sichon,46.0200050808,3.6485006457599995
ferté-hauterive,46.396159353,3.3355449517
fleuriel,46.2870292399,3.1616945100400002
fourilles,46.2438583922,3.19784046802
franchesse,46.643656641099994,3.0366200435799997
gannat,46.0984192073,3.17790823629
gannay-sur-loire,46.7179070524,3.5963465072500003
garnat-sur-engièvre,46.6348166525,3.66797467464
gennetines,46.629639879799996,3.40498318638
gipcy,46.5110673404,3.0513893919300004
gouise,46.410712815299995,3.43846428318
guillermie,45.981322811400005,3.64529174052
hauterive,47.9314503852,3.60699286989
hérisson,46.519907744899996,2.71052889853
huriel,46.3770986154,2.48198364823
hyds,46.273205648,2.8280145758999997
isle-et-bardais,46.6820455059,2.7770186937299997
isserpent,46.1542955213,3.61825876933
jaligny-sur-besbre,46.3770497759,3.59029838546
jenzat,46.1601157879,3.19738809001
laféline,46.3446298238,3.17548675407
lalizolle,46.164630351199996,3.00825559496
lamaids,46.304009167299995,2.43816762566
langy,46.272877432799994,3.4618115333599997
lapalisse,46.264846808,3.6383842518400002
laprugne,45.9937136705,3.76308018051
lavault-sainte-anne,46.3086016059,2.60160340266
lavoine,45.974170662700004,3.6873350606099997
lenax,46.3039709752,3.83067027438
lételon,46.6563542672,2.59495618457
liernolles,46.3986289465,3.7679978379900003
lignerolles,46.50077688,2.1635626606900002
limoise,46.6841966516,3.0548888778099994
loddes,46.2946168116,3.76081551954
loriges,46.2659177615,3.3418808641299997
louchy-montfand,46.3075829687,3.2449192835600003
louroux-bourbonnais,46.5340787528,2.8385482758
louroux-de-beaune,46.2996042062,2.85942062102
louroux-de-bouble,46.2297197928,2.97309854454
luneau,46.36628760479999,3.95278636616
lurcy-lévis,46.7350922642,2.9180032544700003
lusigny,46.5717045071,3.48949898102
magnet,46.2172906901,3.5106036727
haut-bocage,46.492863630200006,2.6585236133400003
malicorne,46.30726786020001,2.7702768473900004
marcenat,45.3162875719,2.8557754213599997
marcillat-en-combraille,46.1701624404,2.6344111837599997
marigny,46.19479923390001,-0.416618786711
mariol,46.0252722149,3.48652009889
mayet-d'école,46.1649554035,3.24084567902
mayet-de-montagne,46.060218168199995,3.65546570851
mazerier,46.1325144393,3.18170482903
mazirat,46.218504557399996,2.55398563
meaulne-vitray,46.5959256579,2.6202211767900003
meillard,50.1708867861,2.19859474382
meillers,46.513261559899995,3.10267194059
mercy,48.030018882700006,3.62631173753
mesples,46.427262116099996,2.36441867083
molinet,46.464220041000004,3.9262713854
molles,46.1150413617,3.5564849518400004
monestier,45.557754124700004,3.6521126436699998
monétay-sur-allier,46.3810175167,3.2893255447099996
monétay-sur-loire,46.435046829399994,3.82462613047
montaiguët-en-forez,46.267429173000004,3.8221356052999997
montaigu-le-blin,46.2907437255,3.51623839378
montbeugny,46.5282061849,3.47422921423
montcombroux-les-mines,46.3606934499,3.72808957144
monteignet-sur-l'andelot,46.1150007655,3.24811283769
montet,46.4062028922,3.0541000253
montilly,46.610528558999995,3.2400574555799997
montluçon,46.3385883496,2.60390499777
montmarault,46.320187275600006,2.95237432039
montoldre,46.337577006400004,3.45102443628
montord,46.289792484399996,3.2396232164499996
montvicq,46.315678911999996,2.82223124184
murat,45.1111408605,2.86065494152
nades,46.1542506646,2.9686183490400007
nassigny,46.4978434905,2.59440652102
naves,50.203373253100004,3.31732755418
néris-les-bains,46.2994420207,2.67574785449
neuilly-en-donjon,46.3427363495,3.88528963495
neuilly-le-réal,46.466710676000005,3.4372150853800005
neure,46.7448146276,2.97978880995
neuvy,48.7432206736,3.5103020736300006
nizerolles,46.107296663199996,3.644080395969999
noyant-d'allier,46.4796760503,3.1187832546700003
paray-le-frésil,46.659897032299995,3.60383070741
paray-sous-briailles,46.29037339520001,3.3698098411799995
périgny,48.69683596350001,2.56167940426
petite-marche,46.189875685699995,2.5614261623099996
pierrefitte-sur-loire,46.5040402992,3.81007064731
pin,44.03766126359999,0.975279136698
poëzat,46.0755325422,3.22701379423
pouzy-mésangy,46.7049856575,3.0071803993599997
prémilhat,46.309930977200004,2.54719729208
quinssaines,46.3092023874,2.49444625529
reugny,47.4859477646,0.872119692494
rocles,44.7026866095,3.7857886908099996
rongères,46.297617923100006,3.4520098944
ronnet,46.20154782270001,2.70087446856
saint-angel,46.0018691299,2.93956309171
saint-aubin-le-monial,46.535765708999996,3.0014439840900002
saint-bonnet-de-four,46.314979416999996,2.90455342628
saint-bonnet-de-rochefort,46.1505309834,3.14079379444
saint-bonnet-tronçais,46.6697641721,2.6961334116900004
saint-caprais,44.6129548228,1.15458264598
saint-christophe,46.925280728500006,0.374730280796
saint-désiré,46.5074397829,2.44986211954
saint-didier-en-donjon,46.3830807017,3.86098077845
saint-didier-la-forêt,46.2294445001,3.3362543705900003
saint-éloy-d'allier,46.496790994499996,2.36296544008
saint-ennemond,46.6808991637,3.4044680768799997
saint-étienne-de-vicq,46.1731804107,3.5361625214699997
saint-fargeol,46.1343424286,2.6307173201400005
saint-félix,45.8078414616,5.977203295750001
saint-genest,48.3455201567,6.51142918366
saint-gérand-de-vaux,46.3838249809,3.40743256191
saint-gérand-le-puy,46.263764004399995,3.5117545159599994
saint-germain-des-fossés,46.1959477042,3.42997700831
saint-germain-de-salles,46.1871001813,3.22053975584
saint-hilaire,48.4416195593,2.08707092552
saint-léger-sur-vouzance,46.409202190600006,3.9372550771699997
saint-léon,44.287180533599994,0.23991399612599998
saint-léopardin-d'augy,46.697950280600004,3.1055135559099996
saint-loup,44.083326900500005,0.852281972741
saint-marcel-en-murat,46.321670893900006,3.00484402977
saint-marcel-en-marcillat,46.1532804539,2.5807538114099997
saint-martin-des-lais,46.6742609191,3.65661845694
saint-martinien,46.3329189292,2.44287081295
saint-menoux,46.582392317200004,3.14494082801
saint-nicolas-des-biefs,46.0632245634,3.79460612214
saint-palais,43.3153764046,-1.0377471932
saint-pierre-laval,46.195456137600004,3.77027031369
saint-plaisir,46.6243818392,2.95587034653
saint-pont,46.1588138012,3.29855532517
saint-pourçain-sur-besbre,46.4817772858,3.64933142149
saint-pourçain-sur-sioule,46.3045094327,3.3053782705400003
saint-priest-d'andelot,46.076571886400004,3.15433929793
saint-priest-en-murat,46.3556892534,2.9026183756700004
saint-prix,49.0208224816,2.27015066493
saint-rémy-en-rollat,46.1924635321,3.3833599099400002
saint-sauvier,46.396594391,2.33154584912
saint-sornin,45.770317043,-0.975040646755
sainte-thérence,46.2433906142,2.57271161868
saint-victor,45.2628084047,0.44263466399400003
saint-voir,46.410067,3.5060612523000003
saint-yorre,46.064257571300004,3.4674966568900003
saligny-sur-roudon,46.4629712549,3.75125723141
sanssat,46.2504085675,3.4677068665900004
saulcet,46.3294310458,3.2669492179299997
saulzet,46.137724291800005,3.2213487730900003
sauvagny,46.4345448666,2.79955608965
sazeret,46.346870258100004,2.9697611268299995
serbannes,46.098919681999995,3.3524574560600002
servilly,46.2802589797,3.58979684003
seuillet,46.2045684264,3.4678784453500002
sorbier,46.3613185647,3.6574793066400004
souvigny,46.524344042299994,3.1899296024900003
sussat,46.1523532024,3.0558441145899997
target,46.2848407144,3.04794632227
taxat-senat,46.207728501000005,3.1457850808499996
teillet-argenty,46.262769166999995,2.5165800392200004
terjat,46.2144621437,2.6187919758200002
theil,46.3563893296,3.1254735703900005
theneuille,46.587490556000006,2.87994545903
thiel-sur-acolin,46.5311020411,3.57823760672
thionne,46.4118104465,3.5732614766400004
tortezais,46.4456252579,2.8734072141900002
toulon-sur-allier,46.51061605,3.3770626576700002
treban,46.3993644498,3.1654172286
treignat,46.3483905337,2.3521991874
treteau,46.3677104422,3.5199697070699996
trévol,46.637051290900004,3.31589139326
trézelles,46.3195324708,3.59671419361
tronget,46.41863339100001,3.08862365583
urçay,46.6340748365,2.61371570998
ussel-d'allier,46.2103626484,3.1894563400700005
valignat,46.1744050814,3.07839354321
valigny,46.7156221865,2.82039123195
vallon-en-sully,46.54013837270001,2.61674884517
varennes-sur-allier,46.317025657799995,3.40012828582
varennes-sur-tèche,46.3177738358,3.6374417286000003
vaumas,46.44840827350001,3.6241176484
vaux,46.28314867899999,0.236630023591
veauce,46.1700928934,3.05432607962
venas,46.4727802173,2.76726504
vendat,46.16181165689999,3.3472709418599997
verneix,46.40805471149999,2.6746212521
vernet,45.038573550100004,3.6623849449800003
verneuil-en-bourbonnais,46.3540600283,3.25057881171
vernusse,46.260273283800004,2.97167741847
veurdre,46.7427276777,3.0425977003099995
vichy,46.1300051383,3.42442081174
vicq,48.821484306,1.8284369470900002
vieure,46.5001110432,2.88222237454
vilhain,46.5619095522,2.7930307797900005
villebret,46.277798684,2.63276519171
villefranche-d'allier,46.396311035699995,2.84126895926
villeneuve-sur-allier,46.674115021800006,3.2503367503500002
viplaix,46.461810965,2.3697542276299997
vitray,46.6167757197,2.67692261152
voussac,46.3256833709,3.07336455653
ygrande,46.5497137895,2.9419969304299998
yzeure,46.563645623199996,3.37978160133
aiglun,43.852418799999995,6.9349423329999995
allemagne-en-provence,43.788790246400005,6.03091832001
allons,44.1933826797,-0.0800075386017
allos,44.2614961379,6.62671789984
angles,46.3870511077,-1.40049386944
annot,43.9620009704,6.66395811566
archail,44.111065342399996,6.33071411194
aubenas-les-alpes,43.9335584163,5.67694693989
aubignosc,44.1182449561,5.957344849069999
authon,47.6375449174,0.883240643609
auzet,44.3054001563,6.31115592449
banon,44.026944807700005,5.64964715248
barcelonnette,44.3785614205,6.65215089713
barles,44.273028019899996,6.25325743878
barras,44.100657561700004,6.098502128350001
barrême,43.946280870500004,6.37811558709
bayons,44.324927726400006,6.172825377590001
beaujeu,46.1564039833,4.58394359167
beauvezer,44.1439752737,6.5977277471
bellaffaire,44.4043915253,6.19420304469
bevons,44.1779964769,5.878959287409999
beynes,48.854444414,1.8698901751299999
blieux,43.874627484499996,6.362796707979999
bras-d'asse,43.9263257197,6.12649772452
braux,47.410846963100006,4.41872277915
ubaye-serre-ponçon,44.443466211899995,6.28924750363
brillanne,43.9319005392,5.884218387969999
brunet,43.8858785364,6.03257536276
brusquet,44.1681621392,6.303473518630001
caire,44.3744163533,6.06875774225
castellane,43.8449862174,6.49029842016
castellard-mélan,44.2016431995,6.131595213250001
castellet,43.834452268999996,5.481166572409999
castellet-lès-sausses,44.040303857299996,6.73450900533
val-de-chalvagne,43.904637433699996,6.765785201950001
céreste,43.850316166400006,5.58976926214
chaffaut-saint-jurson,44.0231804287,6.14073798744
champtercier,44.096935134,6.144564514269999
château-arnoux-saint-auban,44.0854706133,5.992395350240001
châteaufort,48.739004441400006,2.0950983104400005
châteauneuf-miravail,44.153315213,5.71757262461
châteauneuf-val-saint-donat,44.0954534225,5.93054683108
châteauredon,44.026508747,6.224295078530001
chaudon-norante,43.9919149482,6.317368071440001
clamensane,44.3282663642,6.07850180008
claret,43.8572510508,3.8764864729300004
clumanc,44.0220942583,6.37764321053
colmars,44.1724272821,6.661540614400001
condamine-châtelard,44.4627686721,6.69629170403
corbières,43.045252831199996,1.99980584945
cruis,44.0831626991,5.83846949092
curbans,44.4083473334,6.03005001215
curel,48.4982110144,5.14626238825
dauphin,43.89324343689999,5.776452247999999
demandolx,43.8698630954,6.57440592456
digne-les-bains,44.0908723554,6.23590323452
draix,44.1299391525,6.37179977607
enchastrayes,44.3640085405,6.71028980662
entrages,44.0379332734,6.26880026038
entrepierres,44.1956537173,6.02224124199
entrevaux,43.9502625021,6.80238543689
entrevennes,43.9378972717,6.03380903148
escale,44.0810058608,6.03455494518
esparron-de-verdon,43.7438250286,5.98891639232
estoublon,43.943168613999994,6.19407821084
faucon-du-caire,44.3959463913,6.1036738865
faucon-de-barcelonnette,44.4135826726,6.67868075997
fontienne,44.006863418100004,5.79382501149
forcalquier,43.9599082374,5.7882827572
fugeret,44.0145000822,6.6656074714199995
ganagobie,44.002586212299995,5.908500761290001
garde,43.1263279384,6.0189816471899995
gigors,44.42399943979999,6.1409730625800005
gréoux-les-bains,43.7676102812,5.86495046225
hospitalet,44.1089187611,5.70685925605
jausiers,44.3876110175,6.78602312361
javie,44.197199015699994,6.32157607452
lambruisse,44.0448344934,6.44538846702
lardiers,44.08507928939999,5.7269161218099995
lauzet-ubaye,44.432913878,6.41942527455
limans,43.986604993,5.72366425789
lurs,43.9698343331,5.8804940628999995
majastres,43.8980780342,6.283691345499999
malijai,44.0336660524,6.0504243737
mallefougasse-augès,44.075991861300004,5.89779648569
mallemoisson,44.0420071966,6.11807147192
mane,43.080178576,0.9447955326
manosque,43.8354040831,5.791066541729999
marcoux,45.7040618289,3.9979514278300003
méailles,44.040145969300006,6.645329052569999
mées,48.3136638147,0.234399536229
melve,44.3563698074,5.9929110209
val d'oronaye,44.473064229399995,6.8111470269700005
mézel,43.998086336499995,6.17879892264
mirabeau,43.7048655954,5.64268969136
mison,44.26243297520001,5.86562678758
montagnac-montpezat,43.766525069,6.09454805934
montclar,43.9795757997,2.63093615826
montfort,43.368781372,-0.8644388090180001
montfuron,43.831580083999995,5.68859318549
montjustin,43.8452930923,5.65023560321
montlaux,44.0407923753,5.85016627036
montsalier,44.0299525826,5.59574173796
moriez,43.96409295350001,6.462533459069999
motte-du-caire,44.3408705676,6.03052669324
moustiers-sainte-marie,43.838327855900005,6.22818909628
mure-argens,44.0166107784,6.53196701824
nibles,44.2892541829,6.0087262167799995
niozelles,43.9318568104,5.847350078890001
noyers-sur-jabron,44.1686523521,5.809982439780001
omergues,44.1527454808,5.5893705894000005
ongles,44.03142598310001,5.724808814119999
oppedette,43.9306604764,5.592743303630001
oraison,43.911106033,5.92458011626
palud-sur-verdon,43.796648297,6.32708874551
peipin,44.141302654700006,5.9437147381
peyroules,43.8169194662,6.6431011472899995
peyruis,44.03515352,5.92833355728
piégut,44.453378611800005,6.1317225786
pierrerue,43.4408898427,2.9635326577599996
pierrevert,43.8065050599,5.72273821724
pontis,44.4956918963,6.365237765930001
prads-haute-bléone,44.2134336367,6.46376994635
puimichel,43.9791657071,6.025386781849999
puimoisson,43.8708152829,6.122002138150001
quinson,43.7080624854,6.02269492276
redortiers,44.098121107299995,5.61414591507
reillanne,43.886136218199994,5.65935415272
méolans-revel,44.3714312017,6.49846404885
revest-des-brousses,43.9754850716,5.67501221174
revest-du-bion,44.0940903498,5.540509385449999
revest-saint-martin,44.0198482775,5.822986212969999
riez,43.8284587474,6.08237819985
robine-sur-galabre,44.1927329945,6.23038435702
rochegiron,44.109418392600006,5.663813974269999
rochette,48.50684601729999,2.65955941883
rougon,43.796659480200006,6.39318145128
roumoules,43.821041609,6.1486470326300005
saint-andré-les-alpes,43.9713301406,6.50149712225
saint-benoît,-21.0918662796,55.6494168586
sainte-croix-à-lauze,43.9042070968,5.61568170523
sainte-croix-du-verdon,43.7642821493,6.15158882357
hautes-duyes,44.1949051654,6.1742338096500005
saint-étienne-les-orgues,44.0670149849,5.78046052827
saint-geniez,44.2326668931,6.06267402716
saint-jacques,43.976917928999995,6.37128517143
saint-jeannet,43.758845388999994,7.140732117560001
saint-julien-d'asse,43.926615385299996,6.07806454992
saint-julien-du-verdon,43.9097626116,6.54605900451
saint-jurs,43.8990474204,6.19288088982
saint-laurent-du-verdon,43.7216172183,6.06859538838
saint-lions,43.9786318012,6.406277407409999
saint-maime,43.90064207100001,5.801542402999999
saint-martin-de-brômes,43.77747687390001,5.96250175121
saint-martin-les-eaux,43.87197029439999,5.74137178032
saint-martin-lès-seyne,44.3827202732,6.2555532059
saint-michel-l'observatoire,43.909879406,5.72004315449
saint-paul-sur-ubaye,44.5588988433,6.82078770145
saint-pierre,-21.3123242427,55.493615516400006
saint-pons,44.5987337858,4.57192531163
sainte-tulle,43.7830482525,5.77302331731
saint-vincent-les-forts,44.4374162723,6.3688796074
saint-vincent-sur-jabron,44.1697659083,5.74794765286
salignac,44.1571681055,5.9882478596399995
saumane,44.1191109205,3.7689104537900002
sausses,44.0122711291,6.77936939324
selonnet,44.3717210833,6.29379329975
senez,43.922497819899995,6.36903371255
seyne,44.339010817600006,6.384827968350001
sigonce,44.0045227576,5.85658315569
sigoyer,44.4802333692,5.96951792615
simiane-la-rotonde,43.9838128235,5.5624899458899995
sisteron,44.2001925067,5.93083716039
soleilhas,43.8599760555,6.64860753226
sourribes,44.158866481800004,6.0443020478600005
tartonne,44.0784663763,6.383931006799999
thèze,43.4749565308,-0.344667086414
thoard,44.1473006003,6.124012983330001
thorame-basse,44.1071929199,6.489313254369999
thorame-haute,44.0855014984,6.60128741508
thuiles,44.390358455,6.5613559743900005
turriers,44.391588210100004,6.1591822152799995
ubraye,43.9070446741,6.68718463205
uvernet-fours,44.3191132083,6.67028443403
vachères,43.9467491617,5.63529437
valavoire,44.2795099462,6.07615731535
valbelle,44.1371207692,5.87627669795
valensole,43.83808448520001,5.94191847166
valernes,44.2515589736,5.969547642
vaumeilh,44.290307695699994,5.956531218169999
venterol,44.3977805769,5.09846513358
verdaches,44.2677990746,6.343346575909999
vergons,43.9152134017,6.604631361900001
villars-colmars,44.198291615,6.568766743049999
villemus,43.861331796099996,5.70930443127
volonne,44.1239478859,6.03467827528
volx,43.8706676132,5.83153973779
abriès,44.8163462455,6.941644428089999
aiguilles,44.7793442905,6.875180982360001
ancelle,44.6190703929,6.22962169969
argentière-la-bessée,44.7821732712,6.472144973230001
arvieux,44.763898034499995,6.72230859416
aspremont,43.7750731742,7.244757711989998
aspres-lès-corps,44.8128831432,6.000768347569999
aspres-sur-buëch,44.5617512104,5.772032987439999
avançon,49.480858249200004,4.25135015983
baratier,44.5049966967,6.504942181970001
barcillonnette,44.430064655200006,5.9058268501499995
barret-sur-méouge,44.2647188875,5.72864435071
bâtie-montsaléon,44.455944996599996,5.74903304625
bâtie-neuve,44.5797566279,6.21267983536
bâtie-vieille,44.5553227405,6.15570739329
beaume,44.5482914658,5.65375214301
bersac,44.4056964766,5.75340964069
bréziers,44.4210530909,6.2228162100099995
briançon,44.899498604099996,6.64947524018
valdoule,44.4677366709,5.50388863719
buissard,44.6575269333,6.147550688180001
ceillac,44.6526516194,6.80366189831
cervières,45.852425322399995,3.7537577021699993
chabestan,44.477575593400005,5.78305319582
chabottes,44.647578316899995,6.167919785870001
champcella,44.7175774929,6.5313804290499995
champoléon,44.745746101099996,6.273122098659999
chanousse,44.364676015600004,5.66013922855
châteauneuf-d'oze,44.5053255197,5.89775602851
châteauroux-les-alpes,44.6423670958,6.48290823337
châteauvieux,43.7886170767,6.59569074716
château-ville-vieille,44.7677289666,6.8000656504
aubessagne,44.7581501379,6.01187494014
chorges,44.5455124295,6.287823925950001
costes,44.7485743408,6.047285651369999
crévoux,44.5376065379,6.62470372696
crots,44.496293828,6.46197152572
embrun,44.5804294908,6.475592989269999
éourres,44.213837340299996,5.728945539650001
épine,46.9843405667,-2.26449527608
esparron,43.587469774300004,5.848720662180001
espinasses,44.4931786054,6.23271348149
étoile-saint-cyrice,44.3209708871,5.643777614659999
eygliers,44.6925244966,6.66688741371
garde-colombe,44.3570512046,5.783364901769999
fare-en-champsaur,44.6653766254,6.058260388580001
faurie,44.5674587303,5.74040594768
forest-saint-julien,44.6298014381,6.141075312509999
fouillouse,45.5010028075,4.31920755114
freissinières,44.7364921825,6.45937704084
freissinouse,44.535534165,6.00812804583
furmeyer,44.5368984209,5.87585358829
gap,44.5798600596,6.06486052138
glaizil,44.7481922763,5.974872477819999
grave,45.0601102401,6.28406977587
chapelle-en-valgaudémar,44.8166177861,6.2425779341
guillestre,44.6680987436,6.701015870499999
haute-beaume,44.568678840699995,5.6284570376100005
jarjayes,44.50532996,6.108089960319999
laragne-montéglin,44.3340345431,5.81650957133
lardier-et-valença,44.4366046505,5.97348526761
laye,44.6417417308,6.07103943315
lazer,44.3517300661,5.84995060396
lettret,44.481163999799996,6.072584527540001
manteyer,44.533332111899995,5.94989667477
méreuil,44.383974146899995,5.71259098721
molines-en-queyras,44.7166553487,6.891908060689999
monêtier-allemont,44.393096254700005,5.93397190265
monêtier-les-bains,44.9956106766,6.4696649727499995
montbrand,44.591582914600004,5.6676595155900005
montclus,44.2694461878,4.41823005524
mont-dauphin,44.669056240799996,6.62465091015
montgardin,44.54358478100001,6.23305665739
montgenèvre,44.9389932221,6.72778259009
montjay,46.805543440200005,5.29985900019
montmaur,43.4003889656,1.8446362647799999
montmorin,45.691580617700005,3.35819148283
montrond,46.7867874524,5.84385490665
motte-en-champsaur,44.740736752299995,6.129301498489999
moydans,44.409974518599995,5.508973461980001
neffes,44.4958417609,6.02550737641
névache,45.0441286352,6.59862935541
nossage-et-bénévent,44.309720557700004,5.754522217080001
noyer,45.667250153699996,6.05542044441
orcières,44.6840982803,6.34897527824
orpierre,44.3146933801,5.706186075880001
orres,44.4850666477,6.579731422159999
oze,44.5058294764,5.798754861340001
pelleautier,44.51026629770001,5.998777399369999
vallouise-pelvoux,44.899639207,6.43586430867
piarre,44.4784087163,5.64803205429
poët,44.2789746584,5.901313184279999
poligny,48.2336785458,2.7563432153
prunières,44.8174063677,3.3349356186000003
puy-saint-andré,44.8909036618,6.56677781045
puy-saint-eusèbe,44.5685889454,6.41129829522
puy-saint-pierre,44.897315257200006,6.60470761793
puy-saint-vincent,44.8144250588,6.4647473741
puy-sanières,44.555694989399996,6.4366741885800005
rabou,44.6061461258,6.01077928936
rambaud,44.5468227894,6.1316661347500006
réallon,44.6107753971,6.3604603936899995
remollon,44.4716185236,6.15977657931
réotier,44.6813566833,6.56457884975
ribeyret,44.4107304576,5.55802862069
val buëch-méouge,44.220791015100005,5.8434223131400005
risoul,44.62403807729999,6.623174027439999
ristolas,44.735849313500005,6.992021080419999
rochebrune,44.3264290154,5.23698675047
roche-de-rame,44.765668115299995,6.616443697339999
roche-des-arnauds,44.5838170428,5.96045927972
rosans,44.399871954,5.461465318169999
rousset,43.4841496165,5.62380799416
saint-andré-d'embrun,44.5866569322,6.57072142721
saint-andré-de-rosans,44.364739380900005,5.52097371787
saint-apollinaire,47.336030345,5.09322584658
saint-auban-d'oze,44.4883156877,5.848478010190001
saint-bonnet-en-champsaur,44.6823269908,6.10286050171
saint-chaffrey,44.9346479572,6.60139023926
saint-clément-sur-durance,44.647803496899996,6.56074041767
sainte-colombe,47.57333267560001,3.9559778204900002
saint-crépin,45.99704170810001,-0.740341875161
dévoluy,44.6775419763,5.94047368781
saint-étienne-le-laus,44.508034682200005,6.16323058106
saint-eusèbe-en-champsaur,44.72242691140001,6.036466086209999
saint-firmin,46.8475771598,4.46315164519
saint-jacques-en-valgodemard,44.7740637825,6.06964600691
saint-jean-saint-nicolas,44.6744954225,6.23085847467
saint-julien-en-beauchêne,44.6264570637,5.719799759380001
saint-julien-en-champsaur,44.668528887200004,6.129921942999999
saint-laurent-du-cros,44.6342790978,6.10886829684
saint-léger-les-mélèzes,44.6468761009,6.21171867053
sainte-marie,-20.9470588515,55.530355586300004
saint-martin-de-queyrières,44.8375257288,6.58255010654
saint-maurice-en-valgodemard,44.7981863804,6.112788001869999
saint-michel-de-chaillol,44.6888900905,6.169820108910001
saint-pierre-d'argençon,44.5199464873,5.690465129090001
saint-pierre-avez,44.248542825600005,5.768382111039999
saint-sauveur,49.9475408658,2.21117481051
saint-véran,44.684530806000005,6.8905743766
saix,47.1417376447,0.006736556167089999
saléon,44.3201551058,5.775271693530001
salérans,44.2421298245,5.7009605826800005
salle-les-alpes,44.952668572700006,6.5653564177999995
saulce,44.4305124468,6.01099383219
sauze-du-lac,44.485574244,6.32317639258
savines-le-lac,44.5273256992,6.39368059257
savournon,44.424077599300006,5.79927741464
serres,48.691256368199994,6.4543425853
sigottier,44.458049603999996,5.6853111394599996
sorbiers,45.4997083615,4.43728891788
tallard,44.459122073,6.04485602868
théus,44.485210610100005,6.196882530469999
trescléoux,44.354950867700005,5.71825730245
upaix,44.3196073716,5.88311432396
val-des-prés,44.9505522191,6.666548349859999
vallouise,44.8308280468,6.4119701425699995
valserres,44.489284296499996,6.13789393583
vars,47.5377653039,5.520054493759999
ventavon,44.3856656442,5.88845374579
veynes,44.5571529708,5.822860025140001
vigneaux,44.821277318599996,6.536771728280001
villar-d'arêne,44.999721765,6.3642845459399995
villar-loubière,44.836727333599995,6.135597613080001
villar-saint-pancrace,44.8395685825,6.65048294053
vitrolles,43.4497831674,5.26357787665
amirat,43.8962973508,6.812559504559999
andon,43.7769856778,6.82318647257
antibes,43.58746514600001,7.1063541825600005
ascros,43.9193423,7.01550684755
auribeau-sur-siagne,43.612406867,6.9121135665699995
auvare,44.007420582600005,6.9146789682800005
bairols,43.987051020699994,7.119694730580001
bar-sur-loup,43.6992943088,6.962727790510002
beaulieu-sur-mer,43.7079039397,7.332569348810001
beausoleil,43.747724383000005,7.422221545860001
belvédère,44.05648722390001,7.37383120022
bendejun,43.830326954700006,7.2844713062899995
berre-les-alpes,43.8378738812,7.33076301102
beuil,44.1081242884,6.972124580830001
bézaudun-les-alpes,43.803621969,7.09357147024
biot,46.2728593658,6.640240714319999
blausasc,43.7934680936,7.360334776239999
bollène-vésubie,43.995145319399995,7.371843754260001
bonson,45.5220857407,4.22151504235
bouyon,43.8254399796,7.12553872813
breil-sur-roya,43.940430471800006,7.503916150239999
briançonnet,43.8649498097,6.74501344628
broc,45.5037915614,3.25150034962
cabris,43.6599560638,6.878255098139999
cagnes-sur-mer,43.671516207799996,7.1527570337899995
caille,43.7686953119,6.75666650268
cannes,43.552620284300005,7.00427592728
cannet,43.6145950269,-0.0561794206259
cantaron,43.7712030999,7.3131689272800005
cap-d'ail,43.7247392327,7.401616175219999
carros,43.7850390592,7.184141599039999
castagniers,43.7921108913,7.227741330700001
castellar,43.8220566609,7.49891571145
castillon,43.094301823,0.22146561921799998
caussols,43.737344739799994,6.90247233198
châteauneuf-grasse,43.6656345765,6.979140592899999
châteauneuf-villevieille,43.7999098278,7.2941242317600015
châteauneuf-d'entraunes,44.1639701619,6.83506555715
cipières,43.769592692299994,6.928145262849999
clans,47.5990510677,6.030361746900001
coaraze,43.866490178599996,7.29913349222
colle-sur-loup,43.6871701387,7.097736438330001
collongues,43.2895209015,0.168216810258
colomars,43.759423418699996,7.222632498489999
conségudes,43.8406957218,7.04503670887
contes,50.4166808226,1.96163690095
courmes,43.752553379300004,7.01737606418
coursegoules,43.7915580349,7.0362264347100005
croix-sur-roudoule,44.000309665299994,6.87019911618
cuébris,43.8892125828,7.00448794285
daluis,44.0387244451,6.79997095786
drap,43.7582432488,7.3372409022200005
duranus,43.8940350601,7.280226861589999
entraunes,44.2146960621,6.76292204018
escarène,43.833971767399994,7.36565804143
escragnolles,43.72940333729999,6.7833728891
èze,43.72892601979999,7.36057188413
falicon,43.752536584,7.26554536957
ferres,43.8424232733,7.093427551960001
fontan,44.021905257700006,7.54428215207
gars,43.8605226685,6.816762945210001
gattières,43.765219542299995,7.168774681839999
gaude,43.721423765,7.160399264439999
gilette,43.8481962471,7.1613234113
gorbio,43.7860281963,7.44603824995
gourdon,46.6403109594,4.4421869118
grasse,43.655639428,6.93190508233
gréolières,43.8070006506,6.931964961669999
guillaumes,44.088068317,6.874935015339999
ilonse,44.0347982787,7.089764758410001
isola,44.187258533599994,7.07488062255
lantosque,43.9706457549,7.30485730116
levens,43.8500976014,7.240330273270001
lieuche,44.0015669365,7.032410785660001
lucéram,43.9005726905,7.35265575307
malaussène,43.9153232562,7.141120634510001
mandelieu-la-napoule,43.5380510468,6.918089365419999
marie,44.0346077069,7.157446531789999
mas,43.8369129507,6.858940747490001
massoins,43.9477022711,7.124302523810001
menton,43.790823372700004,7.493656123739999
mouans-sartoux,43.618530402299996,6.964944267060001
mougins,43.59614105560001,7.0012944491899995
moulinet,44.5439854826,0.583636615495
mujouls,43.871984766800004,6.85912279446
nice,43.711999266099994,7.23826889465
opio,43.6575610719,7.0086086415799995
pégomas,43.5865553156,6.922248379430001
peille,43.806464829300005,7.41111016741
peillon,43.772735289799996,7.3714797073
penne,44.083378683999996,1.7222256987400002
péone,44.1299250439,6.92098583862
peymeinade,43.6305294544,6.881665208839999
pierlas,44.03467608020001,7.01697586732
pierrefeu,43.8851912789,7.071008137100001
puget-rostang,43.9872004758,6.93685582204
puget-théniers,43.95216492189999,6.906093114349999
revest-les-roches,43.88312974350001,7.167782770980001
rigaud,43.9929332886,6.97505083413
rimplas,44.102764440200005,7.145053385260001
roquebillière,44.0270951827,7.2926946719700005
roquebrune-cap-martin,43.7638278953,7.4587361611
roquefort-les-pins,43.6741732535,7.0530127273000005
roquestéron,43.8677906196,7.024136116549999
roque-en-provence,43.8491534174,6.990119804239999
roquette-sur-siagne,43.5849092456,6.950497948239999
roquette-sur-var,43.8332735566,7.204662433049999
roubion,44.1085047639,7.028029731779999
roure,44.1189138677,7.06680296507
rouret,43.6795612779,7.00962553615
sainte-agnès,46.614830130200005,5.47488282815
saint-andré-de-la-roche,43.745876243999994,7.288713726469999
saint-antonin,43.7201944543,0.822219263011
saint-auban,43.8309790119,6.74006506104
saint-blaise,46.0663582053,6.091540994369999
saint-cézaire-sur-siagne,43.6594259137,6.80329376165
saint-dalmas-le-selvage,44.2894656829,6.840845396240001
saint-étienne-de-tinée,44.2491492809,6.924524450630001
saint-jean-cap-ferrat,43.687178893,7.329936324369999
saint-laurent-du-var,43.6859625772,7.18218791815
saint-léger,48.8435888825,3.27123408518
saint-martin-d'entraunes,44.1494414084,6.745883350240001
saint-martin-du-var,43.8166172421,7.19929220425
saint-martin-vésubie,44.1020722047,7.3024407160800004
saint-paul-de-vence,43.695019029099996,7.12116951865
saint-sauveur-sur-tinée,44.1210676615,7.11814485955
saint-vallier-de-thiey,43.696895033000004,6.85062748704
sallagriffon,43.8807695445,6.913737688060001
saorge,43.9935318832,7.537673484260001
sauze,44.085219987600006,6.8007232458399995
séranon,43.76566627770001,6.690432969600001
sigale,43.8757999129,6.965586181080001
sospel,43.88446074149999,7.44794904955
spéracèdes,43.6524506812,6.856856704069999
théoule-sur-mer,43.4985345439,6.92965248383
thiéry,43.974139002200005,7.0424567137
tignet,43.623581463,6.85261791799
toudon,43.8914641921,7.10840770616
touët-de-l'escarène,43.8520343234,7.37799210413
touët-sur-var,43.9433123484,7.01347640084
tour,46.1336564558,6.4318328750900005
tourette-du-château,43.878275207899996,7.1373451149800005
tournefort,43.941398875699996,7.158503150930001
tourrette-levens,43.7860737213,7.2725568209
tourrettes-sur-loup,43.7174536642,7.03989376281
trinité,14.7386362443,-60.9496306893
turbie,43.7451419024,7.39791811712
utelle,43.927318141099995,7.238644629410001
valbonne,43.628288325,7.029544766960001
valdeblore,44.112759653299996,7.195718912010001
valderoure,43.7942044466,6.71003568639
vallauris,43.576647299899996,7.05836612893
venanson,44.0413364561,7.239185084480001
vence,43.7384640641,7.10194436087
villars-sur-var,43.951866325699996,7.080245210710001
villefranche-sur-mer,43.7122153121,7.32225410533
villeneuve-d'entraunes,44.1221416341,6.78190515159
villeneuve-loubet,43.649256073400004,7.10728434873
brigue,44.07145556060001,7.65147828925
tende,44.0997669286,7.54053179417
accons,44.888532821300004,4.39242968382
ailhon,44.5986106793,4.33305809833
aizac,44.7196762414,4.3306729158
ajoux,44.7550573905,4.48565370819
alba-la-romaine,44.5544439142,4.59597695147
albon-d'ardèche,44.8152938105,4.42503897561
alboussière,44.9397584607,4.73413213329
alissas,44.7070337034,4.6240636083
andance,45.2279590632,4.7973859366400005
annonay,45.2460902392,4.65026947295
antraigues-sur-volane,44.7393183247,4.355175893869999
arcens,44.9005086707,4.31778204029
ardoix,45.1913605655,4.743204276919999
arlebosc,45.040303781599995,4.63051185018
arras-sur-rhône,45.1436776654,4.8036312124
asperjoc,44.6950645443,4.35089629456
assions,44.4254776855,4.1848933711
astet,44.684705784399995,4.02649606307
aubenas,44.6102127084,4.39638981424
aubignas,44.585478585299995,4.633890759090001
baix,44.706378880500004,4.75106497533
balazuc,44.5082860556,4.37244725798
banne,44.36077827020001,4.15113804507
barnas,44.668966428699996,4.15925851766
béage,44.8556634675,4.13043465741
beauchastel,44.8294995047,4.797153821319999
beaulieu,45.4434163862,3.2857086032
beaumont,47.914927129700004,3.55727569805
beauvène,44.869513268199995,4.51162362429
berrias-et-casteljau,44.383230255200004,4.20749715425
berzème,44.655233699600004,4.57203294139
bessas,44.3375930033,4.2983262809
bidon,44.3567960749,4.544525677719999
boffres,44.919020401000004,4.696065111419999
bogy,45.2801067144,4.7674331701199995
borée,44.8950782143,4.22692375234
borne,45.0944224247,3.7919088569
bozas,45.0587357457,4.6483588867500005
boucieu-le-roi,45.0288428449,4.68820163954
boulieu-lès-annonay,45.267323339899995,4.645368943859999
bourg-saint-andéol,44.3830866916,4.61398365069
brossainc,45.3271714387,4.67851483083
burzet,44.74823288899999,4.23385605882
cellier-du-luc,44.673467753400004,3.9017672559400003
chalencon,44.879791268199995,4.55772069308
chambon,46.838530543000005,0.8262019280320001
chambonas,44.4263051358,4.12909504882
champagne,45.829879404399996,-0.9167225801600001
champis,44.955619869399996,4.75241851344
chandolas,44.413637239799996,4.24331144158
chanéac,44.9300424452,4.30692688194
charmes-sur-rhône,44.8667597066,4.83342054458
charnas,45.342858843,4.73157804984
chassiers,44.5660636279,4.30216796986
châteaubourg,48.120001247,-1.4040209643700001
châteauneuf-de-vernoux,44.9249240478,4.64219110032
chauzon,44.4913888491,4.3444960975099995
chazeaux,44.595106156599996,4.2977955993
cheminas,45.1307657233,4.7408790730699994
cheylard,44.9076391858,4.42108479359
chirols,44.6879981327,4.2951862476
chomérac,44.7102364616,4.6702237579500006
colombier-le-cardinal,45.264573014899995,4.74565260834
colombier-le-jeune,45.0115690732,4.71536623274
colombier-le-vieux,45.0590148291,4.698980794330001
cornas,44.96646010479999,4.84063933956
coucouron,44.7949192399,3.96166497009
coux,45.319741434499996,-0.409244232565
crestet,44.209751913199995,5.085974870169999
creysseilles,44.7598496931,4.53023781121
cros-de-géorand,44.7994633979,4.12786466116
cruas,44.6566420857,4.75658824385
darbres,44.659955407700004,4.5159280194199996
davézieux,45.255114104300006,4.702104824659999
désaignes,44.992108781999995,4.50096602027
devesset,45.0660987902,4.39288168953
dompnac,44.5628656588,4.1071679513
dornas,44.8519150741,4.35842422121
dunière-sur-eyrieux,44.8344426554,4.651155769040001
eclassan,45.1606533164,4.74888485543
empurany,45.02633857399999,4.59724737009
étables,45.0948570024,4.73950529738
fabras,44.6484389575,4.28119591056
faugères,43.568765217700005,3.18349121003
félines,45.26480124810001,3.7529763307999997
flaviac,44.7507352776,4.660019925219999
fons,44.6597558601,1.9530741182
freyssenet,44.688619422799995,4.546951148440001
genestelle,44.7366148286,4.3852282453900004
gilhac-et-bruzac,44.863241073199994,4.74540308425
gilhoc-sur-ormèze,44.9855282825,4.67742067444
gluiras,44.8455602063,4.52583208054
glun,45.0070163516,4.82465206981
gras,46.9868721802,6.5396943931300004
gravières,44.421397408199994,4.0717967886699995
grospierres,44.3930827383,4.28692737418
guilherand-granges,44.9301318307,4.86629603942
intres,44.986473992200004,4.3441511813
issamoulenc,44.7883137241,4.45570599159
issanlas,44.76693832270001,4.01543417126
issarlès,44.8523471555,4.05339793965
jaujac,44.6298203979,4.23815139749
jaunac,44.9198243034,4.39270254716
joannas,44.57254782020001,4.24633374271
joyeuse,44.470531994,4.24753667585
juvinas,44.704375812200006,4.3072836289
labastide-sur-bésorgues,44.7487657631,4.29812295465
labastide-de-virac,44.3533257557,4.41978848183
labatie-d'andaure,45.0327655678,4.49525714027
labeaume,44.468087060500004,4.31105082566
labégude,44.6420481125,4.35738052578
lablachère,44.4602290219,4.21397084394
laboule,44.5955201697,4.16972538359
lac-d'issarlès,44.8233324216,4.07465283031
lachamp-raphaël,44.8006451695,4.287594405219999
lachapelle-graillouse,44.8117618119,4.01886475359
lachapelle-sous-aubenas,44.5622616562,4.35906947518
lachapelle-sous-chanéac,44.95413244939999,4.319042237480001
lafarre,44.8371506318,3.98918688187
lagorce,45.0781941491,-0.160779804845
lalevade-d'ardèche,44.6521200865,4.31392373316
lalouvesc,45.115658481800004,4.52555631475
lamastre,44.9822539936,4.590810755030001
lanarce,44.729243797200006,3.9968854475300004
lanas,44.5369264194,4.38390095509
largentière,44.533848470200006,4.30128054451
larnas,44.4543456079,4.59606913482
laurac-en-vivarais,44.5033057192,4.28830492174
laval-d'aurelle,44.572273930600005,3.97264927735
laveyrune,44.620725881599995,3.91933819175
lavillatte,44.7411283435,3.9519607917900004
lavilledieu,44.58216739270001,4.44782050169
laviolle,44.7621284676,4.33354571625
lemps,44.3531580457,5.41264543298
lentillères,44.6092419896,4.29820132309
lespéron,44.73428736140001,3.89547616799
limony,45.3534326814,4.75026547747
loubaresse,44.591276298500006,4.05088477316
lussas,44.6192177092,4.466304619030001
lyas,44.7568405764,4.59691440375
malarce-sur-la-thines,44.478027220600005,4.05011924136
malbosc,44.349514948999996,4.07246027808
marcols-les-eaux,44.8058528887,4.3890569537
mariac,44.8859638189,4.353370340880001
mars,46.1494620298,4.2514137726
mauves,45.0288028345,4.81953244192
mayres,45.3868702112,3.69971432703
mazan-l'abbaye,44.7246364592,4.08102609773
mercuer,44.6260697061,4.35077904415
meyras,44.677562906000006,4.2600141023699996
meysse,44.6193386638,4.71649252868
mézilhac,44.8068921216,4.34184721755
mirabel,44.1424577987,1.4113688594
montpezat-sous-bauzon,44.716747177200006,4.196497065880001
montréal,47.5493086429,4.05005175601
montselgues,44.5332760746,4.0037872182
nonières,44.92770792060001,4.476893638430001
nozières,46.734983408000005,2.4207481359900003
ollières-sur-eyrieux,44.8101851934,4.61974464994
orgnac-l'aven,44.3101002443,4.423697152869999
ozon,43.1694074655,0.2540513635
pailharès,45.0796648371,4.55727839601
payzac,45.421904597700006,1.22669113048
peaugres,45.285780709799994,4.72747805706
péreyres,44.7797076255,4.26098772626
peyraud,45.2964031304,4.78361394668
plagnal,44.693375251400006,3.9512035021800007
planzolles,44.486215326499995,4.15764539553
plats,45.015647868500004,4.78034594921
pont-de-labeaume,44.6657587714,4.29738768266
pourchères,44.739268307399996,4.50440952703
pouzin,44.751745622,4.74858526888
prades,43.611909150600006,1.9714190668
pradons,44.473019743,4.37584445661
pranles,44.7808511718,4.575204311559999
préaux,49.4871501461,1.2158124042
privas,44.722539114700005,4.59449538667
prunet,43.572419221000004,1.72976428437
quintenas,45.1922513246,4.69504598366
ribes,44.5036367428,4.197752933069999
rochecolombe,44.5184712658,4.44840556481
rochemaure,44.589264353000004,4.6921199628500005
rochepaule,45.085671590100006,4.45942671204
rocher,44.5805813909,4.2790675943
rochessauve,44.68067895229999,4.61124085602
roiffieux,45.2189397431,4.64922144398
rompon,44.7787195427,4.73009856646
rosières,44.0411555772,2.19724002021
roux,44.72111573350001,4.143335864680001
ruoms,44.4479030757,4.34786189328
sablières,44.5437864312,4.06325976737
sagnes-et-goudoulet,44.801404239700005,4.2158122460000005
saint-agrève,45.005298063699996,4.41285687419
saint-alban-d'ay,45.1862322828,4.631797842169999
saint-alban-en-montagne,44.7104160839,3.9179500576699997
saint-alban-auriolles,44.4342653055,4.295157573480001
saint-andéol-de-berg,44.530020748000005,4.53661194159
saint-andéol-de-fourchades,44.844995475,4.28822767491
saint-andéol-de-vals,44.6925998295,4.40100662602
saint-andré-de-cruzières,44.315163637,4.21241172389
saint-andré-en-vivarais,45.1164853445,4.409603032940001
saint-andré-lachamp,44.5075453223,4.15221275695
saint-apollinaire-de-rias,44.9204690722,4.59052402464
saint-barthélemy-le-meil,44.884662739,4.47884532485
saint-barthélemy-grozon,44.9596196474,4.64950098004
saint-barthélemy-le-plain,45.045460114899996,4.74368013077
saint-basile,44.9490355283,4.5616001190099995
saint-bauzile,44.4690744788,3.49143883359
saint-christol,44.0312802167,5.50324881102
saint-cierge-la-serre,44.7935573483,4.6802724287
saint-cierge-sous-le-cheylard,44.92614914399999,4.45359829884
saint-cirgues-de-prades,44.6202111771,4.274293988409999
saint-cirgues-en-montagne,44.7681344892,4.0890257431
saint-clair,46.881517056999996,0.057210951696199996
saint-cyr,45.8021449265,0.9821114674629999
saint-désirat,45.25860900439999,4.7794038280699995
saint-didier-sous-aubenas,44.611759532700006,4.42022719051
saint-étienne-de-boulogne,44.7003919648,4.47316819572
saint-étienne-de-fontbellon,44.5985890529,4.37388980251
saint-étienne-de-lugdarès,44.6472996058,3.9732073121900005
saint-étienne-de-serre,44.8012229727,4.5236232669300005
saint-étienne-de-valoux,45.2429551073,4.77699144156
sainte-eulalie,44.7843192803,3.48437305584
saint-félicien,45.0768793363,4.60975134284
saint-fortunat-sur-eyrieux,44.834986851400004,4.689142715319999
saint-genest-de-beauzon,44.445127383599996,4.18697019048
saint-genest-lachamp,44.8439891457,4.42424753719
saint-georges-les-bains,44.8592532012,4.809697149700001
saint-germain,46.576164562200006,0.9006316969920001
saint-gineis-en-coiron,44.6337066136,4.538942946740001
saint-jacques-d'atticieux,45.331826334300004,4.66333060833
saint-jean-chambre,44.9083362092,4.5616408271
saint-jean-de-muzols,45.0791512889,4.79987361991
saint-jean-le-centenier,44.587377340699994,4.53812653504
saint-jean-roure,44.9554453172,4.418854387790001
saint-jeure-d'andaure,45.047837368100005,4.46395685246
saint-jeure-d'ay,45.14480398520001,4.71028966691
saint-joseph-des-bancs,44.748161488,4.4139752551800004
saint-julien-boutières,44.9687620295,4.34665154898
saint-julien-du-gua,44.7707970545,4.44037521655
saint-julien-du-serre,44.6600211072,4.403958811580001
saint-julien-en-saint-alban,44.7586202476,4.6926180101499995
saint-julien-labrousse,44.9079658376,4.51640015413
saint-julien-le-roux,44.8675203578,4.67592482949
saint-julien-vocance,45.16701093100001,4.487777604200001
saint-just-d'ardèche,44.2932027853,4.62448546044
saint-lager-bressac,44.6916750931,4.71621277437
saint-laurent-du-pape,44.8232083643,4.7449478067
